stop_id,stop_code,stop_name,stop_lat,stop_lon,location_type,parent_station
1,1,"Marine Dr NE & 27th Ave NE",48.055790,-122.195504,0,
7,7,"Marine Dr NE & 23rd Ave NE",48.054792,-122.200918,0,
12,12,"Totem Beach Rd & Tulalip Bay Dr",48.060860,-122.276670,0,
13,13,"Totem Beach Rd & 70th St NW",48.059275,-122.274695,0,
18,18,"Marine Dr NE & 19th Ave NE",48.053202,-122.205236,0,
19,19,"Marine Dr NE & 21st Dr NE",48.054450,-122.201425,0,
22,22,"Seeman St & Fullerton Ave",48.255155,-121.608266,0,
23,23,"State Ave & 92nd St NE",48.079528,-122.175008,0,
36,36,"Pioneer Hwy & 77th Ave NW",48.234315,-122.338088,0,
37,37,"N 200th St & Burke Ave N",47.774115,-122.336908,0,
39,39,"Meridian Ave N & N 205th St",47.777216,-122.335431,0,
40,40,"Meridian Ave N & N 203rd St",47.775797,-122.335361,0,
41,41,"N 200th St & Burke Ave N",47.774240,-122.336568,0,
82,82,"Lakeview Dr & Ballinger Playfield",47.790506,-122.328710,0,
83,83,"52nd Ave W & 204th St SW",47.814084,-122.303084,0,
85,85,"67th Ave NE & 69th Pl NE",48.058215,-122.140722,0,
141,141,"Puget Park Dr & 138th Pl SE",47.871081,-122.156891,0,
142,142,"164th St SW & Larch Way",47.849806,-122.248089,0,
143,143,"164th St SE & 1st Ave SE",47.849194,-122.230907,0,
144,144,"Puget Park Dr & 146th St SE",47.865367,-122.163137,0,
145,145,"Puget Park Dr & 148th St SE",47.863676,-122.160503,0,
146,146,"Puget Park Dr & Silver Firs Dr",47.862780,-122.154626,0,
147,147,"Puget Park Dr & 62nd Dr SE",47.863061,-122.147321,0,
148,148,"Snohomish Cascade Dr & 146th Pl SE",47.864635,-122.145328,0,
152,152,"Puget Park Dr & 54th Ave SE",47.868462,-122.160451,0,
153,153,"Snohomish Cascade Dr & 142nd St SE",47.867915,-122.145136,0,
154,154,"Snohomish Cascade Dr & 146th Pl SE",47.863900,-122.145529,0,
155,155,"Puget Park Dr & 62nd Dr SE",47.863243,-122.148936,0,
156,156,"Puget Park Dr & Silver Firs Dr",47.862621,-122.156253,0,
157,157,"Puget Park Dr & 54th Ave SE",47.863795,-122.160181,0,
158,158,"Puget Park Dr & 53rd Ave SE",47.868951,-122.159254,0,
159,159,"Puget Park Dr & 138th Pl SE",47.870991,-122.156717,0,
161,161,"E 1st St & S French Ave",48.192370,-122.122230,0,
162,162,"E 1st St & N Washington Ave",48.192342,-122.119045,0,
165,165,"128th St SE & 3rd Ave SE",47.881878,-122.226415,0,
167,167,"128th St SW & 8th Ave W",47.881762,-122.243642,0,
168,168,"128th St SW & E Gibson Rd",47.881707,-122.249338,0,
171,171,"132nd St SE & 25th Ave SE",47.877948,-122.198222,0,
172,172,"132nd St SE & 29th Dr SE",47.877890,-122.192855,0,
173,173,"132nd St SE & 35th Ave SE",47.877824,-122.184321,0,
174,174,"132nd St SE & 44th Ave SE",47.877685,-122.172719,0,
179,179,"148th St SW & 48th Ave W",47.864172,-122.296282,0,
180,180,"148th St SW & 52nd Ave W",47.864310,-122.302758,0,
182,182,"152nd St NE & 43rd Ave NE",48.133877,-122.171612,0,
183,183,"152nd St NE & Smokey Point Blvd",48.134134,-122.182605,0,
185,185,"152nd St NE & 39th Ave NE",48.134099,-122.179580,0,
186,186,"152nd St NE & 47th Ave NE",48.133838,-122.166272,0,
187,187,"164th St SW & 13th Ave W",47.849591,-122.251068,0,
189,189,"164th St SW & Alderwood Mall Pkwy",47.849841,-122.270718,0,
190,190,"164th St SE & 3rd Ave SE",47.849183,-122.227194,0,
193,193,"164th St SW & Larch Way",47.849471,-122.245554,0,
194,194,"164th St SW & North Rd",47.849256,-122.233526,0,
198,198,"168th St SE & 23rd Ave SE",47.845603,-122.201359,0,
199,199,"168th St SE & 25th Ave SE",47.845575,-122.198145,0,
202,202,"168th St SW & 52nd Ave W",47.846503,-122.305560,0,
205,205,"172nd St NE & 16th Dr NE",48.151839,-122.208168,0,
207,207,"172nd St NE & 27th Ave NE",48.152059,-122.193078,0,
209,209,"172nd St NE & 3rd Ave NE",48.151965,-122.228617,0,
226,226,"194th St SW & 48th Ave W",47.822772,-122.297205,0,
227,227,"194th St SW & 44th Ave W",47.822710,-122.293442,0,
230,230,"196th St SW & 64th Ave W",47.821117,-122.318917,0,
231,231,"196th St SW & 68th Ave W",47.821210,-122.324356,0,
234,234,"196th St SW & 84th Ave W",47.821398,-122.346403,0,
235,235,"196th St SW & Heinz Pl",47.821306,-122.330424,0,
236,236,"196th St SW & Scriber Lake Rd",47.821077,-122.310274,0,
238,238,"196th St SW & 86th Ave W",47.821388,-122.348575,0,
241,241,"Second St & Ave A",47.912799,-122.093982,0,
242,242,"Second St & Ave C",47.912859,-122.096733,0,
245,245,"20th St NE & 112th Dr NE",48.015386,-122.079489,0,
248,248,"20th St NE & 116th Ave NE",48.015582,-122.073686,0,
249,249,"20th St NE & 120th Dr NE",48.015546,-122.068703,0,
250,250,"Alderwood Mall Blvd & 44th Ave W",47.817254,-122.289819,0,
251,251,"200th St SW & 53rd Pl W",47.817391,-122.304318,0,
252,252,"200th St SW & 56th Ave W",47.817423,-122.307935,0,
255,255,"200th St SW & 68th Ave W",47.817634,-122.324135,0,
257,257,"200th St SW & Cedar Valley Rd",47.817359,-122.299786,0,
259,259,"200th St SW & 56th Ave W",47.817440,-122.310892,0,
260,260,"200th St SW & 60th Ave W",47.817461,-122.314901,0,
262,262,"Alderwood Mall Blvd & 40th Ave W",47.817446,-122.287451,0,
263,263,"204th St SW & 23rd Ave W",47.813419,-122.263839,0,
264,264,"204th St SW & 30th Ave W",47.813532,-122.273497,0,
266,266,"204th St NE & 71st Ave NE",48.180785,-122.134165,0,
268,268,"204th St SW & Poplar Way",47.813528,-122.277973,0,
269,269,"204th St SW & Larch Way",47.813575,-122.286325,0,
270,270,"N 205th St & Fremont Ave N",47.777707,-122.351100,0,
271,271,"N 205th St & 91st Ave W",47.777691,-122.355261,0,
273,273,"N 205th St & Greenwood Ave N",47.777694,-122.358083,0,
277,277,"208th St SW & 72nd Ave W",47.810428,-122.328983,0,
283,283,"212th St SW & 80th Ave W",47.806854,-122.340781,0,
286,286,"212th St SW & 77th Pl W",47.806837,-122.337544,0,
288,288,"220th St SE & 17th Ave SE",47.798561,-122.208297,0,
289,289,"220th St SW & 54th Ave W",47.799235,-122.305440,0,
290,290,"220th St SW & 66th Ave W",47.799368,-122.321252,0,
303,303,"228th St SE & 15th Ave SE",47.791217,-122.212669,0,
304,304,"228th St SW & 32nd Ave W",47.791839,-122.276009,0,
305,305,"228th St SW & 35th Ave W",47.791764,-122.279320,0,
306,306,"228th St SW & 66th Ave W",47.792132,-122.321599,0,
307,307,"228th St SW & 76th Ave W",47.792285,-122.334941,0,
309,309,"228th St SW & 228th Pl SW",47.791731,-122.283025,0,
310,310,"228th St SW & 39th Pl W",47.791755,-122.286994,0,
311,311,"228th St SW & 72nd Pl W",47.792248,-122.331573,0,
313,313,"230th St SW & 59th Ave W",47.790228,-122.312719,0,
318,318,"236th St SW & 48th Ave W",47.784605,-122.296857,0,
319,319,"236th St SW & 52nd Ave W",47.784657,-122.302394,0,
320,320,"236th St SW & 54th Ave W",47.784686,-122.305212,0,
321,321,"236th St SW & 56th Ave W",47.784710,-122.307383,0,
322,322,"236th St SW & 58th Ave W",47.784750,-122.311336,0,
324,324,"236th St SW & 50th Ave W",47.784635,-122.300439,0,
326,326,"238th St SW & Edmonds Way",47.783160,-122.349924,0,
327,327,"238th St SW & 84th Ave W",47.783159,-122.347461,0,
333,333,"271st St NW & 94th Dr NW",48.242061,-122.360661,0,
334,334,"271st St NW & 90th Ave NW",48.242060,-122.353328,0,
335,335,"271st St NW & 92nd Ave NW",48.242073,-122.357790,0,
336,336,"271st St NW & 96th Ave NW",48.242046,-122.363226,0,
340,340,"276th St NW & 78th Ave NW",48.246636,-122.338966,0,
342,342,"64th St NE & 47th Ave NE",48.051695,-122.167147,0,
344,344,"4th St & Quinn Ave",48.051713,-122.171961,0,
356,356,"64th St NE & 65th Dr NE",48.053609,-122.144022,0,
357,357,"64th St NE & 58th Dr NE",48.053756,-122.153087,0,
358,358,"64th St NE & 55th Dr NE",48.053803,-122.156001,0,
359,359,"64th St NE & 60th Dr NE",48.053692,-122.149168,0,
369,369,"92nd St SE & 113th Dr SE",47.913225,-122.078651,0,
370,370,"Alderwood Mall Blvd & 28th Ave W",47.826434,-122.270416,0,
371,371,"Alderwood Mall Blvd & 33rd Ave W",47.822757,-122.277329,0,
372,372,"Beardslee Blvd & 108th Ave NE",47.762240,-122.195901,0,
384,384,"E Burke Ave & Manhattan St",48.200185,-122.121560,0,
399,399,"Caspers St & 7th Ave N",47.817697,-122.371372,0,
400,400,"Caspers St & 8th Ave N",47.817696,-122.369272,0,
402,402,"Chennault Beach Rd & Harbour Reach Dr",47.895144,-122.299804,0,
408,408,"W Dayton St & Edmonds Way",47.809625,-122.384710,0,
416,416,"Grove St & 47th Ave NE",48.061125,-122.166988,0,
417,417,"Grove St & 51st Ave NE",48.061086,-122.162502,0,
431,431,"Howell St & Yale Ave",47.617818,-122.329279,0,
432,432,"Harbour Pointe Blvd SW & 52nd Pl W",47.886098,-122.304001,0,
433,433,"Harbour Pointe Blvd SW & Blue Heron Blvd",47.886362,-122.298652,0,
435,435,"Harbour Pointe Blvd SW & Harbour Reach Dr",47.886910,-122.294677,0,
439,439,"Lewis Ave & 3rd St",47.857588,-121.698904,0,
440,440,"Lewis Ave & 7th St",47.855389,-121.694587,0,
441,441,"Lake View Dr & Cedar Rd",48.015301,-122.083988,0,
443,443,"Lakewood Rd & 176th Pl NW",48.156474,-122.244826,0,
444,444,"Lakewood Rd & 184th St NW",48.163303,-122.336041,0,
445,445,"Lakewood Rd & 188th St NW",48.166847,-122.347770,0,
446,446,"Lakewood Rd & 31st Dr NW",48.155554,-122.274244,0,
447,447,"Lakewood Rd & 65th Dr NW",48.160846,-122.326002,0,
448,448,"Lakewood Rd & 172nd St NW",48.152101,-122.238810,0,
449,449,"Lakewood Rd & 60th Ave NW",48.158978,-122.314509,0,
450,450,"Lakewood Rd & E Lake Goodwin Rd",48.155637,-122.288206,0,
451,451,"Lakewood Rd & 53rd Dr NW",48.155837,-122.306386,0,
452,452,"Lakewood Rd & Lake Ki",48.156724,-122.262389,0,
453,453,"Logan Rd & Locust Way",47.808529,-122.253484,0,
454,454,"Lundeen Pkwy & Hwy 9",48.013184,-122.106978,0,
455,455,"Lundeen Pkwy & Vernon Rd",48.017728,-122.092097,0,
456,456,"Lundeen Pkwy & 101st Ave NE",48.017726,-122.094862,0,
457,457,"Main St & 7th Ave N",47.810437,-122.372537,0,
459,459,"Main St & 8th Ave S",47.810443,-122.369099,0,
460,460,"Main St & 9th Ave S",47.810440,-122.365877,0,
461,461,"Main St & Hillcrest Pl",47.810442,-122.354145,0,
466,466,"Main St & 12th Ave N",47.810431,-122.358818,0,
467,467,"Main St & Olympic Ave",47.810430,-122.361030,0,
468,468,"Main St & 86th Pl W",47.810455,-122.350907,0,
473,473,"Olive Way & 6th Ave",47.612988,-122.336576,0,
477,477,"Pioneer Hwy & 77th Ave NW",48.234157,-122.338185,0,
478,478,"Puget Dr & Olympic View Dr",47.821437,-122.363574,0,
479,479,"Seattle Hill Rd & 25th Ave SE",47.852961,-122.199153,0,
480,480,"Seattle Hill Rd & Seattle Hill Rd",47.851201,-122.205037,0,
482,482,"Seattle Hill Rd & 2900 Block",47.856318,-122.193553,0,
483,483,"Seeman St & Givens Ave",48.255181,-121.603204,0,
488,488,"Edmonds Way & 102nd Pl W",47.792075,-122.369740,0,
489,489,"Edmonds Way & 232nd Pl SW",47.788256,-122.354650,0,
490,490,"N 205th St & Meridian Ave N",47.777632,-122.334600,0,
491,491,"Edmonds Way & 236th St SW",47.783826,-122.352773,0,
492,492,"NE 205th St & 6th Ave NE",47.777544,-122.323222,0,
493,493,"Edmonds Way & 95th Pl W",47.791656,-122.360310,0,
499,499,"Hwy 530 & Ramstad Rd",48.268359,-121.960897,0,
500,500,"Hwy 530 & C-Post Rd",48.277083,-121.817740,0,
501,501,"Hwy 530 & 379th Ave NE",48.268654,-121.718551,0,
502,502,"Hwy 530 & French Creek Rd",48.278349,-121.761969,0,
504,504,"Hwy 530 & 103rd Ave NE",48.226264,-122.091479,0,
505,505,"Hwy 530 & 115th Ave NE",48.230066,-122.079886,0,
506,506,"Hwy 530 & 119th Ave NE",48.233942,-122.069352,0,
507,507,"Hwy 530 & 171st Ave NE",48.270412,-122.004002,0,
508,508,"Hwy 530 & 179th Ave NE",48.273533,-121.984223,0,
510,510,"Hwy 530 & 304th St NE",48.273503,-121.914881,0,
515,515,"Hwy 530 & Oso Loop Rd",48.272157,-121.900168,0,
516,516,"Hwy 530 & Ramstad Rd",48.268784,-121.954492,0,
517,517,"Hwy 530 & Tom Creek Rd",48.268848,-121.726468,0,
518,518,"Hwy 530 & Arlington Heights Rd",48.204553,-122.117430,0,
519,519,"Hwy 530 & 294th St NE",48.264087,-122.021014,0,
520,520,"Hwy 530 & Boulder Creek Dr",48.278150,-121.778196,0,
521,521,"Hwy 530 & 139th Ave NE",48.247249,-122.042116,0,
522,522,"Hwy 530 & 310th St NE",48.276823,-121.801263,0,
523,523,"Hwy 530 & 411th Ave NE",48.269133,-121.675949,0,
524,524,"Hwy 530 & Hillis Rd",48.268629,-122.009103,0,
525,525,"Hwy 530 & Squire Creek Park Rd",48.270711,-121.669809,0,
526,526,"Hwy 530 & Powerline Rd",48.263021,-121.632856,0,
527,527,"Hwy 530 & 171st Ave NE",48.273261,-121.999341,0,
528,528,"Hwy 530 & Whitman Rd",48.271635,-121.889261,0,
529,529,"Hwy 530 & 350th Dr NE",48.277744,-121.755848,0,
532,532,"Hwy 92 & 127th Dr NE",48.032011,-122.058667,0,
534,534,"Hwy 92 & 44th St NE",48.036216,-122.049443,0,
536,536,"Hwy 92 & 64th St NE",48.057196,-122.026692,0,
537,537,"Hwy 92 & Crooked Mile Rd",48.078991,-122.001191,0,
538,538,"Hwy 92 & 161st Ave NE",48.067583,-122.015066,0,
539,539,"Hwy 92 & 44th St NE",48.039702,-122.045496,0,
540,540,"Hwy 92 & 75th St NE",48.063050,-122.020146,0,
541,541,"Hwy 92 & 84th St NE",48.071286,-122.010094,0,
543,543,"W Stanley St & Portage Ave",48.083229,-121.974339,0,
544,544,"W Stanley St & Cascade Ave",48.083262,-121.970844,0,
550,550,"Hwy 2 & 339th Ave SE",47.868011,-121.776258,0,
551,551,"Hwy 2 & 363rd Ave SE",47.867090,-121.744236,0,
552,552,"Hwy 2 & Fryelands Blvd SE",47.872186,-122.007438,0,
555,555,"Hwy 2 & Sofie Rd",47.855736,-121.926731,0,
558,558,"Hwy 2 & Fern Bluff Rd",47.858080,-121.830246,0,
560,560,"Hwy 2 & 368th Dr SE",47.867091,-121.737655,0,
575,575,"100th Ave W & 237th Pl SW",47.784573,-122.366244,0,
586,586,"179th Ave SE & Grand St SE",47.855126,-121.990515,0,
588,588,"179th Ave SE & 154th St SE",47.856961,-121.990515,0,
589,589,"179th Ave SE & Stanton St",47.860357,-121.990592,0,
595,595,"207th St NE & Keith Ln",48.182491,-122.122429,0,
597,597,"23rd Ave SE & 171st Pl SE",47.842750,-122.201726,0,
603,603,"29th Ave W & 232nd St SW",47.788510,-122.271895,0,
605,605,"3rd Ave N & 4th Ave N",47.815411,-122.376175,0,
606,606,"3rd Ave N & Bell St",47.812641,-122.378479,0,
607,607,"3rd Ave N & Giltner Ln",47.817241,-122.374653,0,
608,608,"3rd Ave N & Daley St",47.813588,-122.377692,0,
611,611,"35th Ave W & 156th St SW",47.858466,-122.280228,0,
612,612,"35th Ave SE & 156th St SE",47.855460,-122.186890,0,
613,613,"35th Ave W & 158th St SW",47.855877,-122.280169,0,
615,615,"35th Ave SE & 164th St SE",47.848704,-122.186524,0,
617,617,"36th Ave W & 171st St SW",47.844286,-122.281709,0,
619,619,"36th Ave W & 184th St SW",47.832558,-122.281573,0,
623,623,"36th Ave W & 176th Pl SW",47.839116,-122.281693,0,
624,624,"39th Ave SE & NE 204th Pl",47.776680,-122.180103,0,
629,629,"4th Ave W & 213th Pl SW",47.804597,-122.238353,0,
630,630,"4th Ave W & 216th St SW",47.802532,-122.238347,0,
635,635,"4th Ave S & S Washington St",47.601317,-122.328867,0,
638,638,"4th Ave W & 219th Pl SW",47.799057,-122.238311,0,
641,641,"4th Ave & Seneca St",47.607457,-122.334020,0,
645,645,"44th Ave W & 172nd St SW",47.843067,-122.292422,0,
646,646,"44th Ave W & 174th Pl SW",47.841078,-122.292395,0,
647,647,"44th Ave W & 179th St SW",47.837084,-122.292394,0,
648,648,"44th Ave W & 184th St SW",47.832301,-122.292369,0,
649,649,"44th Ave W & 188th St SW",47.828573,-122.292275,0,
650,650,"44th Ave W & 192nd St SW",47.825233,-122.292316,0,
651,651,"44th Ave W & 214th St SW",47.805262,-122.292226,0,
652,652,"44th Ave W & Hawk Way",47.802243,-122.292105,0,
653,653,"44th Ave W & 220th St SW",47.799854,-122.292213,0,
654,654,"44th Ave W & 226th St SW",47.794100,-122.292128,0,
656,656,"44th Ave W & Maple Rd",47.834628,-122.292402,0,
658,658,"44th Ave W & 176th St SW",47.838885,-122.292395,0,
659,659,"44th Ave W & 223rd St SW",47.797380,-122.292186,0,
660,660,"44th Ave W & 224th St SW",47.795836,-122.292167,0,
662,662,"44th Ave W & 20800 Block",47.811044,-122.292138,0,
665,665,"47th Ave W & Chennault Beach Rd",47.896264,-122.297402,0,
666,666,"47th Pl W & Harbour Pointe Blvd",47.904322,-122.296530,0,
667,667,"47th Ave W & 109th St SW",47.898565,-122.295924,0,
675,675,"48th Ave W & 233rd St SW",47.787473,-122.297528,0,
681,681,"5th Ave S & Elm Way",47.800908,-122.377438,0,
682,682,"5th Ave S & Holly Dr",47.806775,-122.377483,0,
683,683,"5th Ave S & Pine St",47.803625,-122.377459,0,
688,688,"51st Ave NE & 119th Pl NE",48.103157,-122.162120,0,
689,689,"51st Ave NE & 123rd Pl NE",48.106792,-122.162148,0,
690,690,"51st Ave NE & 126th Pl NE",48.109909,-122.162163,0,
691,691,"51st Ave NE & 128th Pl NE",48.111331,-122.162163,0,
692,692,"51st Ave NE & 130th Pl NE",48.113817,-122.162227,0,
693,693,"51st Ave NE & 134th Pl NE",48.117704,-122.162352,0,
694,694,"51st Ave NE & 139th St NE",48.121289,-122.162489,0,
695,695,"51st Ave NE & 139th Pl NE",48.122850,-122.162543,0,
696,696,"51st Ave NE & 110th Pl NE",48.094054,-122.162202,0,
698,698,"51st Ave NE & 142nd Pl NE",48.124667,-122.162529,0,
699,699,"51st Ave NE & 146th St NE",48.128284,-122.162299,0,
701,701,"52nd Ave W & 152nd St SW",47.861149,-122.303467,0,
703,703,"52nd Ave W & 160th St SW",47.854169,-122.303480,0,
704,704,"52nd Ave W & 164th St SW",47.850685,-122.303484,0,
705,705,"52nd Ave W & 168th St SW",47.847305,-122.303478,0,
709,709,"52nd Ave W & 208th St SW",47.810458,-122.302997,0,
711,711,"52nd Ave W & 216th St SW",47.802769,-122.303036,0,
714,714,"52nd Ave W & 220th St SW",47.799593,-122.303029,0,
718,718,"56th Ave W & 224th St SW",47.796004,-122.308387,0,
719,719,"56th Ave W & 228th St SW",47.792269,-122.308381,0,
725,725,"56th Ave W & 222nd Pl SW",47.797739,-122.308401,0,
726,726,"56th Ave W & 235th St SW",47.785957,-122.308306,0,
733,733,"6th Ave S & Dayton St",47.809958,-122.374786,0,
739,739,"66th Ave W & 222nd St SW",47.797825,-122.321880,0,
740,740,"66th Ave W & 224th St SW",47.796081,-122.321884,0,
741,741,"66th Ave W & 228th St SW",47.792602,-122.321870,0,
742,742,"66th Ave W & 226th St SW",47.794582,-122.321886,0,
749,749,"67th Ave NE & 72nd St NE",48.060776,-122.140721,0,
755,755,"68th Ave W & 204th St SW",47.814748,-122.324713,0,
761,761,"72nd Ave NW & 268th St NW",48.240643,-122.330210,0,
762,762,"72nd Ave NW & 261st St NW",48.233489,-122.330066,0,
766,766,"76th Ave W & 198th St SW",47.819553,-122.335765,0,
767,767,"76th Ave W & 204th St SW",47.814622,-122.335724,0,
768,768,"76th Ave W & 212th St SW",47.807578,-122.335626,0,
769,769,"76th Ave W & 219th St SW",47.800789,-122.335532,0,
770,770,"76th Ave W & 230th St SW",47.790797,-122.335392,0,
771,771,"76th Ave W & 236th St SW",47.785298,-122.335307,0,
772,772,"76th Ave W & 244th St SW",47.778617,-122.335210,0,
773,773,"76th Ave W & 200th St SW",47.817970,-122.335749,0,
774,774,"76th Ave W & 206th St SW",47.812650,-122.335673,0,
775,775,"76th Ave W & 234th St SW",47.787256,-122.335333,0,
778,778,"8th St & Alder St",47.862963,-121.809792,0,
781,781,"84th Ave W & 216th St SW",47.803816,-122.346436,0,
782,782,"84th Ave W & 218th St SW",47.801932,-122.346423,0,
783,783,"84th Ave W & 220th St SW",47.800291,-122.346397,0,
784,784,"84th Ave W & 224th St SW",47.796243,-122.346329,0,
785,785,"84th Ave W & 228th St SW",47.793251,-122.346270,0,
786,786,"84th Ave W & 230th St SW",47.790808,-122.346255,0,
787,787,"84th Ave W & 236th St SW",47.785375,-122.346144,0,
789,789,"84th Ave W & Holly Ln",47.788508,-122.346242,0,
794,794,"9th Ave N & Hindley Ln",47.819957,-122.366935,0,
800,800,"91st Ave SE & 16th Pl SE",47.981162,-122.108755,0,
801,801,"91st Ave SE & 8th St SE",47.988288,-122.108677,0,
805,805,"Airport Rd & 106th St SW",47.902799,-122.267834,0,
806,806,"Airport Rd & 112th St SW",47.897138,-122.263778,0,
807,807,"Airport Rd & Admiralty Way",47.884833,-122.254348,0,
808,808,"Airport Rd & E Gibson Rd",47.882200,-122.250961,0,
809,809,"Airport Rd & Holly Dr",47.899137,-122.265243,0,
811,811,"Airport Rd & 100th St SW",47.907113,-122.270754,0,
815,815,"Beardslee Blvd & Ross Rd",47.767905,-122.190915,0,
817,817,"Beverly Park Rd & 132nd St SW",47.878987,-122.286102,0,
818,818,"Beverly Park Rd & 134th Pl SW",47.876718,-122.288644,0,
819,819,"Beverly Park Rd & 49th Pl W",47.867920,-122.300049,0,
820,820,"Beverly Park Rd & 140th St SW",47.871449,-122.294594,0,
823,823,"Beverly Park Rd & 142nd Pl SW",47.869659,-122.296560,0,
824,824,"Beverly Park Rd & 47th Pl W",47.874632,-122.291016,0,
825,825,"Bickford Ave & 34th St",47.948621,-122.113666,0,
837,837,"Brook Blvd & 175th St SE",47.840178,-122.201412,0,
839,839,"Brook Blvd & Palomino Dr",47.836517,-122.204614,0,
840,840,"S Stillaguamish Ave & 207th Pl NE",48.184575,-122.118036,0,
842,842,"Cedar Way & 236th St SW",47.785495,-122.290733,0,
844,844,"Cedar Way & 232nd St SW",47.788022,-122.291520,0,
846,846,"Chennault Beach Rd & Harbour Reach Dr",47.895433,-122.300538,0,
856,856,"Cypress Way & 205th St SW",47.812521,-122.258822,0,
857,857,"Ave D & 13th St",47.928606,-122.099120,0,
859,859,"Ave D & Fifth St",47.918006,-122.098127,0,
860,860,"Ave D & 10th St",47.923379,-122.097796,0,
880,880,"Firdale Ave & 240th Pl SW",47.781179,-122.366049,0,
881,881,"Firdale Ave & 243rd Pl SW",47.778391,-122.362649,0,
887,887,"Grade Rd & Hwy 92",48.030086,-122.072077,0,
888,888,"Grade Rd & 22nd St NE",48.018973,-122.062910,0,
889,889,"Grade Rd & Catherine Dr",48.025005,-122.064668,0,
894,894,"Harbour Pointe Blvd & 47th Pl W",47.904914,-122.295342,0,
895,895,"Harbour Pointe Blvd SW & 52nd Pl W",47.886141,-122.304832,0,
896,896,"Harbour Pointe Blvd & N Grove Dr",47.893849,-122.311178,0,
897,897,"Harbour Pointe Blvd & Double Eagle Dr",47.888091,-122.310548,0,
898,898,"Harbour Pointe Blvd & Harbour Heights Pkwy",47.895594,-122.307890,0,
899,899,"Hubbard Rd & 210th St SW",47.809015,-122.243018,0,
906,906,"Lakeview Dr & Ballinger Park",47.787106,-122.326183,0,
907,907,"Lakeview Dr & Ballinger Playfield",47.790583,-122.328552,0,
911,911,"Marine Dr & Florence Rd",48.223024,-122.335295,0,
912,912,"Marine Dr & Norman Rd",48.213079,-122.335834,0,
913,913,"Marine Dr & 226th St NW",48.201258,-122.337488,0,
914,914,"Marine Dr & Old Marine Dr",48.208478,-122.336559,0,
915,915,"Marine Dr & Happy Hollow Rd",48.188520,-122.340092,0,
916,916,"Marine Dr & 201st St NW",48.179192,-122.351851,0,
917,917,"Marine Dr & Warm Beach Conference Center",48.184381,-122.346738,0,
926,926,"Mountain Loop Hwy & Alvord St",48.251867,-121.601024,0,
927,927,"Mountain Loop Hwy & Seeman St",48.254840,-121.601604,0,
930,930,"N Olympic Ave & E 2nd St",48.193939,-122.126348,0,
934,934,"Olympic View Dr & 170th Pl SW",47.844597,-122.319360,0,
940,940,"Olympic View Dr & 172nd St SW",47.842840,-122.321880,0,
951,951,"Shoultes Rd & 103rd Pl NE",48.088913,-122.166769,0,
954,954,"Smokey Point Blvd & 152nd St NE",48.134498,-122.183027,0,
959,959,"Smokey Point Blvd & 156th St NE",48.138339,-122.182942,0,
960,960,"Smokey Point Blvd & 166th Pl NE",48.145689,-122.182839,0,
963,963,"Hwy 525 & 80th St SW",47.926122,-122.300137,0,
964,964,"Hwy 525 & 84th St SW",47.922904,-122.300024,0,
967,967,"Hwy 525 & Clover Ln",47.933567,-122.306237,0,
968,968,"Hwy 525 & Goat Trail Rd",47.939845,-122.305691,0,
969,969,"Hwy 525 & Harbour Pointe Blvd SW",47.890339,-122.285038,0,
972,972,"Hwy 525 & 15th Pl",47.937176,-122.305962,0,
973,973,"Hwy 525 & 76th St SW",47.929024,-122.301099,0,
974,974,"Hwy 525 & Chennault Beach Rd",47.899542,-122.291377,0,
975,975,"Hwy 525 & Harbour Pointe Blvd",47.905471,-122.292797,0,
979,979,"Hwy 527 & 186th Pl SE",47.828838,-122.208904,0,
980,980,"Reder Way & Bothell Way NE",47.763208,-122.207643,0,
981,981,"Hwy 527 & 189th Pl SE",47.826735,-122.208257,0,
982,982,"Hwy 527 & 192nd St SE",47.824244,-122.207229,0,
983,983,"Hwy 527 & 196th St SE",47.821067,-122.207290,0,
986,986,"Hwy 527 & 220th St SE",47.799180,-122.211358,0,
988,988,"Hwy 527 & Seattle Hill Rd",47.844694,-122.215701,0,
990,990,"Hwy 527 & 201st Pl SE",47.814999,-122.207307,0,
992,992,"Hwy 527 & 234th St SE",47.785210,-122.219635,0,
994,994,"Hwy 9 & Lundeen Pkwy",48.013578,-122.107936,0,
995,995,"Hwy 9 & Hwy 204",48.003497,-122.106220,0,
997,997,"Hwy 99 & 60th Ave W",47.825189,-122.311388,0,
998,998,"Hwy 99 & 40th Ave W",47.860083,-122.285529,0,
1001,1001,"Hwy 99 & 156th St SW",47.858136,-122.287345,0,
1002,1002,"Hwy 99 & 44th Ave W",47.851532,-122.292503,0,
1004,1004,"Hwy 99 & 174th Pl SW",47.841407,-122.297368,0,
1006,1006,"Hwy 99 & 188th St SW",47.829233,-122.307911,0,
1009,1009,"Hwy 99 & 204th St SW",47.814386,-122.320722,0,
1010,1010,"Hwy 99 & 208th St SW",47.810774,-122.323474,0,
1011,1011,"Hwy 99 & 212th St SW",47.807360,-122.325949,0,
1014,1014,"Hwy 99 & 230th St SW",47.790824,-122.337853,0,
1015,1015,"Hwy 99 & 234th St SW",47.788522,-122.339538,0,
1018,1018,"Hwy 99 & 180th St SW",47.834840,-122.303063,0,
1020,1020,"Hwy 99 & Lincoln Way",47.874097,-122.272475,0,
1021,1021,"Hwy 99 & N Manor Way",47.880619,-122.266413,0,
1022,1022,"Hwy 99 & 76th Ave W",47.794913,-122.334917,0,
1023,1023,"Hwy 99 & 240th St SW",47.781240,-122.344886,0,
1024,1024,"Hwy 99 & Gibson Rd",47.882826,-122.264326,0,
1027,1027,"State Ave & 7th St",48.055033,-122.176839,0,
1028,1028,"State Ave & 76th St NE",48.065424,-122.176761,0,
1029,1029,"State Ave & 80th St NE",48.068896,-122.176790,0,
1030,1030,"State Ave & 84th St NE",48.072256,-122.176394,0,
1032,1032,"State Ave & 92nd St NE",48.079634,-122.174689,0,
1035,1035,"State Ave & 10th St",48.057483,-122.176812,0,
1039,1039,"Village Green Dr & 21st Dr SE",47.866336,-122.204637,0,
1040,1040,"Village Green Dr & Trillium Blvd SE",47.867290,-122.207934,0,
1044,1044,"Village Green Dr & 28th Dr SE",47.863775,-122.194622,0,
1045,1045,"Village Green Dr & 27th Dr SE",47.864994,-122.196191,0,
1054,1054,"100th Ave W & 232nd St SW",47.787590,-122.366874,0,
1058,1058,"100th Ave W & 238th St SW",47.784029,-122.366544,0,
1070,1070,"179th Ave SE & Stanton St SE",47.860081,-121.990757,0,
1071,1071,"179th Ave SE & 154th St SE",47.857469,-121.990736,0,
1072,1072,"179th Ave SE & 157th Pl SE",47.854114,-121.990686,0,
1079,1079,"2nd Ave & Stewart St",47.610659,-122.340261,0,
1085,1085,"23rd Ave SE & 168th St SE",47.845338,-122.201959,0,
1087,1087,"23rd Ave SE & 171st Pl SE",47.842551,-122.201916,0,
1093,1093,"3rd Ave N & Edmonds St",47.813176,-122.378235,0,
1095,1095,"3rd Ave N & 4th Ave N",47.814813,-122.376883,0,
1096,1096,"3rd Ave N & Sater Ln",47.816726,-122.375290,0,
1098,1098,"35th Ave W & 156th St SW",47.856994,-122.280441,0,
1099,1099,"35th Ave SE & 156th St SE",47.855744,-122.187076,0,
1100,1100,"35th Ave SE & 164th St SE",47.849066,-122.186933,0,
1102,1102,"36th Ave W & 167th Pl SW",47.846402,-122.281982,0,
1103,1103,"36th Ave W & 173rd Pl SW",47.841861,-122.281918,0,
1104,1104,"36th Ave W & 176th Pl SW",47.838418,-122.281912,0,
1107,1107,"36th Ave W & 180th Pl SW",47.834936,-122.281854,0,
1110,1110,"39th Ave SE & 243rd Pl SE",47.777645,-122.180515,0,
1114,1114,"4th Ave W & 213th Pl SW",47.804627,-122.238556,0,
1115,1115,"4th Ave W & 216th St SW",47.802024,-122.238509,0,
1116,1116,"4th Ave W & 219th Pl SW",47.799010,-122.238505,0,
1120,1120,"4th Ave W & Hubbard Rd",47.806583,-122.238346,0,
1126,1126,"44th Ave W & 20800 Block",47.810131,-122.292514,0,
1128,1128,"44th Ave W & 176th St SW",47.838750,-122.292609,0,
1129,1129,"44th Ave W & 180th St SW",47.835316,-122.292606,0,
1130,1130,"44th Ave W & 181st Pl SW",47.833793,-122.292582,0,
1131,1131,"44th Ave W & 183rd Pl SW",47.831915,-122.292558,0,
1133,1133,"44th Ave W & 212th St SW",47.805942,-122.292491,0,
1134,1134,"44th Ave W & 221st Pl SW",47.799179,-122.292403,0,
1135,1135,"44th Ave W & 222nd St SW",47.797366,-122.292382,0,
1136,1136,"44th Ave W & 224th St SW",47.795881,-122.292384,0,
1138,1138,"44th Ave W & 230th Pl SW",47.789529,-122.292201,0,
1140,1140,"44th Ave W & 172nd Pl SW",47.842363,-122.292610,0,
1141,1141,"44th Ave W & 174th Pl SW",47.840803,-122.292634,0,
1142,1142,"44th Ave W & 192nd Pl SW",47.823984,-122.292526,0,
1143,1143,"44th Ave W & 189th Pl SW",47.826462,-122.292531,0,
1144,1144,"44th Ave W & Hawk Way",47.801695,-122.292483,0,
1145,1145,"44th Ave W & 226th St SW",47.793782,-122.292339,0,
1146,1146,"44th Ave W & 186th St SW",47.830560,-122.292534,0,
1148,1148,"47th Ave W & 107th St SW",47.900961,-122.294563,0,
1149,1149,"47th Ave W & 109th St SW",47.898819,-122.295928,0,
1150,1150,"47th Pl W & Harbour Pointe Blvd",47.904256,-122.296705,0,
1155,1155,"48th Ave W & 194th St SW",47.822562,-122.297906,0,
1156,1156,"48th Ave W & 196th St SW",47.820183,-122.297908,0,
1161,1161,"48th Ave W & 233rd St SW",47.787124,-122.297727,0,
1167,1167,"5th Ave S & Howell Way",47.806151,-122.377672,0,
1168,1168,"5th Ave S & Pine St",47.803627,-122.377655,0,
1170,1170,"5th Ave S & Elm Way",47.799862,-122.377661,0,
1173,1173,"51st Ave NE & 146th St NE",48.129043,-122.162461,0,
1174,1174,"51st Ave NE & 110th Pl NE",48.095076,-122.162366,0,
1175,1175,"51st Ave NE & 130th Pl NE",48.113637,-122.162392,0,
1176,1176,"51st Ave NE & 135th Pl NE",48.117583,-122.162512,0,
1177,1177,"51st Ave NE & 139th St NE",48.120804,-122.162653,0,
1179,1179,"51st Ave NE & 123rd Pl NE",48.106597,-122.162309,0,
1180,1180,"51st Ave NE & 128th Pl NE",48.111263,-122.162330,0,
1181,1181,"51st Ave NE & 126th Pl NE",48.109437,-122.162382,0,
1182,1182,"51st Ave NE & 142nd Pl NE",48.125082,-122.162709,0,
1183,1183,"51st Ave NE & 119th Pl NE",48.103430,-122.162380,0,
1184,1184,"51st Ave NE & 139th Pl NE",48.122240,-122.162716,0,
1185,1185,"52nd Ave W & 148th St SW",47.864034,-122.303756,0,
1186,1186,"52nd Ave W & 152nd St SW",47.860457,-122.303764,0,
1187,1187,"52nd Ave W & 156th St SW",47.857629,-122.303769,0,
1188,1188,"52nd Ave W & 160th St SW",47.853338,-122.303775,0,
1191,1191,"52nd Ave W & 204th St SW",47.813479,-122.303300,0,
1193,1193,"52nd Ave W & 217th St SW",47.802492,-122.303249,0,
1196,1196,"52nd Ave W & 208th St SW",47.810523,-122.303300,0,
1197,1197,"52nd Ave W & 164th St SW",47.850042,-122.303751,0,
1202,1202,"56th Ave W & 224th St SW",47.795490,-122.308594,0,
1203,1203,"56th Ave W & 234th St SW",47.786269,-122.308540,0,
1206,1206,"56th Ave W & 222nd Pl SW",47.797213,-122.308611,0,
1209,1209,"56th Ave W & 228th St SW",47.791557,-122.308592,0,
1222,1222,"66th Ave W & 220th St SW",47.798771,-122.322096,0,
1223,1223,"66th Ave W & 222nd St SW",47.797270,-122.322076,0,
1224,1224,"66th Ave W & 224th St SW",47.795622,-122.322076,0,
1225,1225,"66th Ave W & 226th St SW",47.793811,-122.322093,0,
1232,1232,"67th Ave NE & 69th Pl NE",48.057814,-122.140942,0,
1233,1233,"67th Ave NE & 72nd St NE",48.060340,-122.140939,0,
1240,1240,"68th Ave W & 204th St SW",47.814597,-122.324916,0,
1243,1243,"72nd Ave NW & 261st St NW",48.233171,-122.330247,0,
1246,1246,"72nd Ave NW & 268th St NW",48.240647,-122.330379,0,
1252,1252,"76th Ave W & 200th St SW",47.817554,-122.335940,0,
1253,1253,"76th Ave W & 203rd St SW",47.814499,-122.335926,0,
1255,1255,"76th Ave W & 212th St SW",47.806387,-122.335916,0,
1256,1256,"76th Ave W & 218th St SW",47.801277,-122.335762,0,
1257,1257,"76th Ave W & 230th St SW",47.790278,-122.335603,0,
1258,1258,"76th Ave W & 234th St SW",47.786721,-122.335550,0,
1259,1259,"76th Ave W & 236th St SW",47.784788,-122.335522,0,
1260,1260,"76th Ave W & 238th Pl SW",47.782455,-122.335492,0,
1261,1261,"76th Ave W & 242nd St SW",47.779307,-122.335454,0,
1271,1271,"84th Ave W & 216th St SW",47.803062,-122.346587,0,
1272,1272,"84th Ave W & 218th St SW",47.801226,-122.346556,0,
1273,1273,"84th Ave W & 220th St SW",47.799235,-122.346564,0,
1274,1274,"84th Ave W & 228th St SW",47.792072,-122.346423,0,
1275,1275,"84th Ave W & 230th St SW",47.790233,-122.346403,0,
1277,1277,"84th Ave W & Holly Ln",47.788056,-122.346359,0,
1278,1278,"84th Ave W & 224th St SW",47.796055,-122.346499,0,
1279,1279,"84th Ave W & 236th St SW",47.785259,-122.346317,0,
1280,1280,"84th Ave W & 238th St SW",47.783588,-122.346270,0,
1286,1286,"9th Ave N & Hindley Ln",47.819413,-122.367129,0,
1288,1288,"91st Ave SE & 12th Pl SE",47.984620,-122.108913,0,
1289,1289,"91st Ave SE & 17th St SE",47.980331,-122.108998,0,
1290,1290,"91st Ave SE & 8th St SE",47.988650,-122.108876,0,
1295,1295,"Airport Rd & 100th St SW",47.906868,-122.271136,0,
1296,1296,"Airport Rd & 106th St SW",47.901217,-122.267183,0,
1297,1297,"Airport Rd & 112th St SW",47.895785,-122.263244,0,
1299,1299,"Airport Rd & Admiralty Way",47.883847,-122.254004,0,
1300,1300,"Airport Rd & Beverly Park Rd",47.897737,-122.264697,0,
1302,1302,"E Stanley St & S Alder Ave",48.083095,-121.964193,0,
1307,1307,"Beverly Park Rd & 138th Pl SW",47.872735,-122.293466,0,
1308,1308,"Beverly Park Rd & 49th Pl W",47.867683,-122.301249,0,
1309,1309,"Beverly Park Rd & Harbour Heights Rd",47.876294,-122.289469,0,
1312,1312,"Beverly Park Rd & 47th Pl W",47.874629,-122.291299,0,
1313,1313,"Beverly Park Rd & 132nd St SW",47.880020,-122.285078,0,
1314,1314,"Bickford Ave & 34th St",47.948346,-122.113701,0,
1316,1316,"Brier Rd & 232nd St SW",47.789550,-122.274373,0,
1318,1318,"Broadway & 14th St",47.998665,-122.201231,0,
1329,1329,"Brook Blvd & Palomino Dr",47.837012,-122.204569,0,
1330,1330,"Brook Blvd & 175th St SE",47.839202,-122.202352,0,
1332,1332,"Cedar Way & 232nd St SW",47.787960,-122.291697,0,
1348,1348,"Cypress Way & 206th St SW",47.811704,-122.259743,0,
1350,1350,"Ave D & Fifth St",47.917311,-122.098366,0,
1351,1351,"Ave D & Bonneville Ave",47.922876,-122.098091,0,
1353,1353,"Ave D & 13th St",47.926617,-122.098195,0,
1379,1379,"Firdale Ave & 243rd Pl SW",47.778261,-122.362756,0,
1380,1380,"Firdale Ave & 240th Pl SW",47.780701,-122.365934,0,
1385,1385,"Grade Rd & 22nd St NE",48.018634,-122.063135,0,
1386,1386,"Grade Rd & 29th Pl NE",48.024317,-122.064367,0,
1387,1387,"Grade Rd & Hwy 92",48.030027,-122.072525,0,
1390,1390,"Harbour Pointe Blvd & Double Eagle Dr",47.887314,-122.310160,0,
1391,1391,"Harbour Pointe Blvd & Harbour Heights Pkwy",47.895359,-122.308752,0,
1392,1392,"Harbour Pointe Blvd & Saint Andrews Dr",47.893478,-122.311815,0,
1393,1393,"Harbour Pointe Blvd & 47th Pl W",47.905117,-122.295520,0,
1394,1394,"Hubbard Rd & 210th St SW",47.808883,-122.243034,0,
1401,1401,"Lakeview Dr & Ballinger Park",47.786231,-122.325947,0,
1403,1403,"Marine Dr & Warm Beach Conference Center",48.184292,-122.347187,0,
1405,1405,"Marine Dr & Boe Rd",48.212843,-122.336286,0,
1406,1406,"Marine Dr & Old Marine Dr",48.209185,-122.336829,0,
1407,1407,"Marine Dr & Thomle Rd",48.224768,-122.337326,0,
1408,1408,"Marine Dr & 201st St NW",48.178800,-122.352016,0,
1409,1409,"Marine Dr & 81st Ave NW",48.188753,-122.340332,0,
1410,1410,"Marine Dr & 226th St NW",48.201319,-122.337662,0,
1419,1419,"Mountain Loop Hwy & Alvord St",48.251340,-121.601001,0,
1420,1420,"Mountain Loop Hwy & Seeman St",48.254793,-121.601816,0,
1427,1427,"Olympic View Dr & 172nd St SW",47.842840,-122.322068,0,
1430,1430,"Olympic View Dr & 170th Pl SW",47.844630,-122.319553,0,
1443,1443,"Shoultes Rd & 107th Pl NE",48.091656,-122.164072,0,
1445,1445,"Shoultes Rd & 103rd Pl NE",48.088909,-122.166941,0,
1447,1447,"Smokey Point Blvd & 156th St NE",48.136875,-122.183265,0,
1448,1448,"Smokey Point Blvd & 172nd St NE",48.151906,-122.183164,0,
1450,1450,"Smokey Point Blvd & 166th Pl NE",48.145016,-122.183133,0,
1455,1455,"Hwy 525 & 3rd St",47.946029,-122.304152,0,
1456,1456,"Hwy 525 & 81st Pl SW",47.923971,-122.300365,0,
1457,1457,"Hwy 525 & 84th St SW",47.921573,-122.300328,0,
1458,1458,"Hwy 525 & 88th St SW",47.918237,-122.300139,0,
1461,1461,"Hwy 525 & Chennault Beach Rd",47.898846,-122.291378,0,
1462,1462,"Hwy 525 & Harbour Pointe Blvd SW",47.889523,-122.284993,0,
1464,1464,"Hwy 525 & Russell Rd",47.896057,-122.289445,0,
1466,1466,"Hwy 525 & Harbour Pointe Blvd",47.904712,-122.293225,0,
1468,1468,"Hwy 525 & 76th St SW",47.929225,-122.301879,0,
1469,1469,"Hwy 525 & 80th St SW",47.925974,-122.300481,0,
1470,1470,"Hwy 525 & Clover Ln",47.933327,-122.306454,0,
1472,1472,"Hwy 525 & Goat Trail Rd",47.940244,-122.305856,0,
1475,1475,"Hwy 527 & NE 190th St",47.764932,-122.209121,0,
1476,1476,"Hwy 527 & 192nd St SE",47.823535,-122.207624,0,
1477,1477,"Hwy 527 & 196th St SE",47.819605,-122.207643,0,
1478,1478,"Hwy 527 & 19th Dr SE",47.813510,-122.207719,0,
1482,1482,"Hwy 527 & 234th St SE",47.785415,-122.219911,0,
1486,1486,"Hwy 527 & Seattle Hill Rd",47.844032,-122.216027,0,
1491,1491,"Hwy 9 & Lundeen Pkwy",48.012889,-122.108227,0,
1492,1492,"Hwy 9 & Hwy 204",48.002494,-122.106445,0,
1493,1493,"Hwy 99 & 40th Ave W",47.860502,-122.285603,0,
1495,1495,"Hwy 99 & 60th Ave W",47.824801,-122.312185,0,
1498,1498,"Hwy 99 & 156th St SW",47.856512,-122.289310,0,
1502,1502,"Hwy 99 & 188th St SW",47.827669,-122.309711,0,
1505,1505,"Hwy 99 & 202nd St SW",47.815264,-122.320426,0,
1506,1506,"Hwy 99 & 208th St SW",47.809703,-122.324694,0,
1507,1507,"Hwy 99 & 212th St SW",47.805379,-122.327809,0,
1510,1510,"Hwy 99 & 224th St SW",47.795549,-122.334893,0,
1511,1511,"Hwy 99 & 230th St SW",47.790207,-122.338743,0,
1512,1512,"Hwy 99 & 44th Ave W",47.851717,-122.292835,0,
1514,1514,"Hwy 99 & Russell Way",47.879527,-122.267865,0,
1516,1516,"Hwy 99 & 234th St SW",47.788133,-122.340240,0,
1518,1518,"Hwy 99 & Gibson Rd",47.882958,-122.264679,0,
1519,1519,"Hwy 99 & Lincoln Way",47.873930,-122.273086,0,
1521,1521,"Hwy 99 & 180th St SW",47.834973,-122.303382,0,
1522,1522,"State Ave & 100th St NE",48.083707,-122.172991,0,
1525,1525,"State Ave & 7th St",48.054847,-122.177103,0,
1526,1526,"State Ave & 80th St NE",48.067308,-122.177047,0,
1529,1529,"State Ave & 84th St NE",48.072185,-122.176679,0,
1530,1530,"State Ave & 10th St",48.058471,-122.177081,0,
1531,1531,"State Ave & 76th St NE",48.064540,-122.177039,0,
1537,1537,"Village Green Dr & 26th Dr SE",47.864786,-122.196183,0,
1538,1538,"Village Green Dr & Willow Ln SE",47.865819,-122.203710,0,
1541,1541,"Village Green Dr & 28th Dr SE",47.863747,-122.194836,0,
1542,1542,"Village Green Dr & 20th Dr SE",47.866831,-122.206328,0,
1549,1549,"E 1st St & N Lenore Ave",48.192498,-122.121906,0,
1550,1550,"E 1st St & N Stillaguamish Ave",48.192451,-122.117925,0,
1551,1551,"107th St SW & 47th Ave W",47.901284,-122.294908,0,
1552,1552,"128th St SE & 3rd Ave SE",47.882116,-122.228697,0,
1553,1553,"128th St SW & 4th Ave W",47.882044,-122.240279,0,
1554,1554,"128th St SW & 8th Ave W",47.882001,-122.245798,0,
1557,1557,"132nd St SE & 25th Ave SE",47.878183,-122.199398,0,
1558,1558,"132nd St SE & 29th Ave SE",47.878116,-122.193616,0,
1559,1559,"132nd St SE & 35th Ave SE",47.878081,-122.186346,0,
1560,1560,"132nd St SE & 44th Ave SE",47.877944,-122.173895,0,
1564,1564,"132nd St SE & 21st Dr SE",47.878226,-122.202297,0,
1566,1566,"148th St SW & 45th Pl W",47.864331,-122.295381,0,
1567,1567,"148th St SW & 48th Pl W",47.864430,-122.299838,0,
1571,1571,"152nd St NE & 43rd Ave NE",48.134047,-122.172717,0,
1572,1572,"152nd St NE & 39th Ave NE",48.134180,-122.179582,0,
1575,1575,"164th St SW & Alderwood Mall Pkwy",47.850113,-122.270684,0,
1576,1576,"164th St SE & 3rd Ave SE",47.849379,-122.228299,0,
1577,1577,"164th St SW & Ash Way",47.850007,-122.261550,0,
1578,1578,"164th St SE & Meridian Ave S",47.849483,-122.233195,0,
1579,1579,"164th St SW & 7th Pl W",47.849692,-122.243006,0,
1581,1581,"164th St SW & 13th Ave W",47.849889,-122.252914,0,
1584,1584,"168th St SE & 28th Dr SE",47.845648,-122.194866,0,
1586,1586,"168th St SW & 52nd Ave W",47.846698,-122.304119,0,
1590,1590,"168th St SE & 25th Ave SE",47.845706,-122.198912,0,
1592,1592,"172nd St NE & 27th Ave NE",48.152339,-122.194350,0,
1593,1593,"172nd St NE & 3rd Ave NE",48.152054,-122.227335,0,
1595,1595,"172nd St NW & Lakewood Rd",48.152082,-122.238195,0,
1601,1601,"184th St SW & 33rd Ave W",47.832030,-122.278516,0,
1611,1611,"188th St NE & 35th Ave NE",48.167047,-122.184125,0,
1613,1613,"194th St SW & 44th Ave W",47.822841,-122.292936,0,
1614,1614,"194th St SW & 46th Ave W",47.822896,-122.296436,0,
1617,1617,"196th St SW & 64th Ave W",47.821348,-122.320373,0,
1618,1618,"196th St SW & 68th Ave W",47.821428,-122.326291,0,
1621,1621,"196th St SW & 84th Ave W",47.821544,-122.347110,0,
1622,1622,"196th St SW & 86th Ave W",47.821532,-122.349841,0,
1625,1625,"196th St SW & Heinz Pl",47.821468,-122.330842,0,
1626,1626,"Second St & Ave C",47.913046,-122.097760,0,
1629,1629,"Second St & Ave A",47.912965,-122.093744,0,
1630,1630,"20th St NE & 112th Dr NE",48.015473,-122.079950,0,
1631,1631,"20th St NE & 116th Ave NE",48.015690,-122.074837,0,
1632,1632,"20th St NE & 120th Dr NE",48.015650,-122.068657,0,
1635,1635,"Alderwood Mall Blvd & 40th Ave W",47.817442,-122.289748,0,
1638,1638,"200th St SW & 50th Ave W",47.817514,-122.302009,0,
1639,1639,"200th St SW & 52nd Pl W",47.817536,-122.304554,0,
1640,1640,"200th St SW & 56th Ave W",47.817562,-122.309516,0,
1646,1646,"204th St SW & 28th Ave W",47.813634,-122.271498,0,
1648,1648,"204th St SW & Poplar Way",47.813691,-122.279166,0,
1649,1649,"204th St SW & 24th Ave W",47.813590,-122.265175,0,
1650,1650,"204th St SW & 38th Ave W",47.813752,-122.283702,0,
1651,1651,"204th St NE & 71st Ave NE",48.180923,-122.134578,0,
1652,1652,"207th St NE & S Stillaguamish Ave",48.184281,-122.118729,0,
1656,1656,"208th St SW & 70th Ave W",47.810576,-122.327889,0,
1662,1662,"212th St SW & 80th Ave W",47.807009,-122.341700,0,
1666,1666,"220th St SW & 53rd Ave W",47.799375,-122.304798,0,
1677,1677,"220th St SW & 66th Ave W",47.799584,-122.320713,0,
1681,1681,"228th St SW & 32nd Ave W",47.791927,-122.276999,0,
1682,1682,"228th St SW & 39th Ave W",47.791891,-122.287162,0,
1684,1684,"228th St SW & 73rd Pl W",47.792404,-122.332274,0,
1685,1685,"228th St SW & 35th Ave W",47.791868,-122.279486,0,
1686,1686,"228th St SW & 76th Ave W",47.792442,-122.334797,0,
1689,1689,"230th St SW & 60th Ave W",47.790365,-122.313650,0,
1695,1695,"236th St SW & 48th Ave W",47.784747,-122.298530,0,
1696,1696,"236th St SW & 50th Ave W",47.784772,-122.300836,0,
1697,1697,"236th St SW & 52nd Ave W",47.784802,-122.303647,0,
1698,1698,"236th St SW & 54th Ave W",47.784828,-122.306131,0,
1699,1699,"236th St SW & 56th Ave W",47.784864,-122.309448,0,
1701,1701,"236th St SW & 44th Pl W",47.784752,-122.292425,0,
1703,1703,"238th St SW & 84th Ave W",47.783281,-122.348479,0,
1705,1705,"238th St SW & Edmonds Way",47.783288,-122.350121,0,
1707,1707,"244th St SW & 3rd Ave NW",47.777847,-122.359795,0,
1708,1708,"244th St SW & 87th Pl W",47.777863,-122.351326,0,
1709,1709,"244th St SW & 91st Ave W",47.777847,-122.355334,0,
1717,1717,"276th St NW & 78th Ave NW",48.246739,-122.338979,0,
1720,1720,"4th St & Quinn Ave",48.051907,-122.172635,0,
1728,1728,"56th St SE & 95th Dr SE",47.945710,-122.102969,0,
1730,1730,"64th St NE & 60th Dr NE",48.053906,-122.150435,0,
1731,1731,"64th St NE & 55th Dr NE",48.054010,-122.157804,0,
1740,1740,"92nd St SE & 113th Dr SE",47.913348,-122.078530,0,
1742,1742,"Alderwood Mall Blvd & 28th Ave W",47.826138,-122.271334,0,
1743,1743,"Alderwood Mall Blvd & 33rd Ave W",47.822563,-122.278040,0,
1755,1755,"E Burke Ave & Manhattan St",48.200341,-122.121932,0,
1768,1768,"Caspers St & Brookmere Dr",47.817835,-122.372519,0,
1769,1769,"Caspers St & 8th Ave N",47.817829,-122.369765,0,
1770,1770,"Chennault Beach Rd & 47th Ave W",47.895745,-122.297829,0,
1773,1773,"Dayton St & Durbin Dr",47.809779,-122.373022,0,
1776,1776,"Dayton St & 8th Ave S",47.809762,-122.369927,0,
1787,1787,"Grove St & 47th Ave NE",48.061273,-122.166344,0,
1788,1788,"Grove St & 51st Ave NE",48.061238,-122.161780,0,
1801,1801,"Harbour Pointe Blvd SW & Harbour Reach Dr",47.887037,-122.295076,0,
1802,1802,"Harbour Pointe Blvd SW & Hwy 525",47.889424,-122.287111,0,
1803,1803,"Harbour Pointe Blvd SW & Blue Heron Blvd",47.886520,-122.299423,0,
1805,1805,"Lake View Dr & Cedar Rd",48.015430,-122.084211,0,
1806,1806,"Lakewood Rd & Lake Ki",48.156937,-122.262420,0,
1807,1807,"Lakewood Rd & 184th St NW",48.163464,-122.336073,0,
1808,1808,"Lakewood Rd & 31st Dr NW",48.155672,-122.274791,0,
1809,1809,"Lakewood Rd & 53rd Dr NW",48.155959,-122.307083,0,
1810,1810,"Lakewood Rd & 60th Ave NW",48.159114,-122.314466,0,
1811,1811,"Lakewood Rd & 84th Dr NW",48.167312,-122.346242,0,
1812,1812,"Lakewood Rd & 176th Pl NW",48.157006,-122.245755,0,
1813,1813,"Lakewood Rd & 65th Dr NW",48.161005,-122.326743,0,
1815,1815,"Logan Rd & 14th Pl W",47.809086,-122.252491,0,
1816,1816,"Lundeen Pkwy & Callow Rd",48.017907,-122.091895,0,
1817,1817,"Lundeen Pkwy & 101st Ave NE",48.017935,-122.094994,0,
1819,1819,"Main St & 12th Ave N",47.810562,-122.359762,0,
1822,1822,"Main St & 86th Pl W",47.810575,-122.350647,0,
1823,1823,"Main St & 9th Ave N",47.810587,-122.367289,0,
1826,1826,"W Main St & N Kelsey St",47.853734,-121.977508,0,
1827,1827,"Main St & Maplewood Dr",47.810567,-122.355044,0,
1828,1828,"Main St & Olympic Ave",47.810561,-122.362182,0,
1830,1830,"Main St & Hwy 2",47.862608,-121.807928,0,
1832,1832,"Mill Creek Rd & Mill Pointe Dr SE",47.851356,-122.205975,0,
1834,1834,"Monte Villa Pkwy & 39th Ave SE",47.778299,-122.183014,0,
1839,1839,"E Pioneer St & S Alder Ave",48.079848,-121.964492,0,
1840,1840,"Puget Dr & Olympic View Dr",47.821567,-122.365172,0,
1843,1843,"Seattle Hill Rd & 2900 Block",47.856513,-122.193615,0,
1844,1844,"Seattle Hill Rd & 25th Ave SE",47.852537,-122.200121,0,
1845,1845,"Seeman St & Givens Ave",48.255345,-121.603407,0,
1848,1848,"Edmonds Way & Paradise Ln",47.795360,-122.373748,0,
1850,1850,"Edmonds Way & 232nd St SW",47.789936,-122.356006,0,
1851,1851,"Edmonds Way & 236th St SW",47.784171,-122.352662,0,
1853,1853,"Edmonds Way & 95th Pl W",47.791995,-122.360234,0,
1862,1862,"Hwy 530 & Ramstad Rd (farside)",48.268536,-121.960789,0,
1863,1863,"Hwy 530 & Boulder Creek Dr",48.278268,-121.778194,0,
1864,1864,"Hwy 530 & 379th Ave NE",48.268796,-121.718591,0,
1865,1865,"Hwy 530 & Powerline Rd",48.263192,-121.633197,0,
1866,1866,"Hwy 530 & 350th Dr NE",48.277975,-121.756354,0,
1867,1867,"Hwy 530 & 119th Ave NE",48.234704,-122.067281,0,
1868,1868,"Hwy 530 & 171st Ave NE",48.273417,-121.999452,0,
1869,1869,"Hwy 530 & N Brooks Creek Rd",48.273678,-121.914957,0,
1870,1870,"Hwy 530 & 294th St NE",48.263596,-122.022025,0,
1871,1871,"Hwy 530 & 411th Ave NE",48.269280,-121.676787,0,
1872,1872,"Hwy 530 & Hillis Rd",48.268352,-122.010374,0,
1873,1873,"Hwy 530 & Seeman St",48.255532,-121.608831,0,
1874,1874,"Hwy 530 & Squire Creek Park Rd",48.270659,-121.670356,0,
1877,1877,"Hwy 530 & C-Post Rd",48.277242,-121.818519,0,
1878,1878,"Hwy 530 & 139th Ave NE",48.247438,-122.042112,0,
1879,1879,"Hwy 530 & 310th St NE",48.276965,-121.801048,0,
1881,1881,"Hwy 530 & Ramstad Rd",48.269103,-121.953958,0,
1882,1882,"Hwy 530 & Whitman Rd",48.271443,-121.888182,0,
1883,1883,"Hwy 530 & 171st Ave NE",48.270574,-122.004137,0,
1884,1884,"Hwy 530 & 179th Ave NE",48.273610,-121.983657,0,
1885,1885,"Hwy 530 & 115th Ave NE",48.229502,-122.081801,0,
1887,1887,"Hwy 530 & French Creek Rd",48.278539,-121.763154,0,
1888,1888,"Hwy 530 & Tom Creek Rd",48.269716,-121.728616,0,
1889,1889,"Hwy 530 & Oso Loop Rd",48.272326,-121.900208,0,
1893,1893,"Hwy 92 & 44th St NE",48.039426,-122.046030,0,
1894,1894,"Hwy 92 & 127th Dr NE",48.032082,-122.059521,0,
1895,1895,"Hwy 92 & 161st Ave NE",48.067073,-122.015889,0,
1896,1896,"Hwy 92 & 44th St NE",48.035930,-122.050093,0,
1897,1897,"Hwy 92 & 84th St NE",48.071416,-122.010318,0,
1898,1898,"Hwy 92 & 64th St NE",48.057704,-122.026431,0,
1899,1899,"Hwy 92 & 75th St NE",48.064135,-122.019178,0,
1902,1902,"Hwy 92 & Crooked Mile Rd",48.078858,-122.001825,0,
1904,1904,"W Stanley St & Portage Ave",48.083356,-121.974622,0,
1907,1907,"Stewart St & 4th Ave",47.612041,-122.339168,0,
1912,1912,"Hwy 2 & Old Owen Rd",47.858418,-121.829740,0,
1913,1913,"Hwy 2 & 383rd Ave SE",47.865117,-121.717949,0,
1916,1916,"Hwy 2 & 368th Dr SE",47.867256,-121.738403,0,
1917,1917,"Hwy 2 & Calhoun Rd",47.855991,-121.927765,0,
1921,1921,"Hwy 2 & 339th Ave SE",47.868127,-121.776987,0,
1922,1922,"Hwy 2 & Roosevelt Rd (East)",47.872764,-122.008294,0,
1925,1925,"Hwy 2 & 364th Ave SE",47.867260,-121.744268,0,
1932,1932,"S Kentucky Ave & E Pioneer St",48.079831,-121.966741,0,
1933,1933,"S Alder Ave & E Pioneer St",48.080462,-121.963972,0,
1934,1934,"S Alder Ave & E Stanley St",48.082845,-121.963961,0,
2085,2085,"Hwy 527 & Mill Creek Blvd",47.855307,-122.218195,0,
2143,2143,"207th St NE & Jensen Farm Ln",48.183015,-122.122545,0,
2169,2169,"Ash Way & 164th St SW",47.850740,-122.260530,0,
2171,2171,"48th Ave W & 200th St SW",47.818360,-122.297678,0,
2194,2194,"27th Ave NE & Marine Dr",48.056847,-122.194890,0,
2195,2195,"27th Ave NE & 74th St NE",48.063629,-122.194807,0,
2196,2196,"27th Ave NE & 81st St NE",48.069266,-122.194693,0,
2198,2198,"27th Ave NE & 88th St NE",48.075210,-122.194843,0,
2199,2199,"27th Ave NE & 81st St NE",48.069519,-122.194885,0,
2200,2200,"27th Ave NE & 74th St NE",48.063007,-122.195047,0,
2203,2203,"Totem Beach Rd & Alphonsus Bob Loop Rd",48.059716,-122.275056,0,
2204,2204,"Totem Beach Rd & Tulalip Bay Dr",48.061160,-122.276861,0,
2205,2205,"76th Pl NW & Marine Dr",48.065582,-122.276990,0,
2207,2207,"220th St SE & 17th Ave SE",47.798628,-122.208645,0,
2211,2211,"29th Dr SE & 228th St SE",47.793089,-122.196090,0,
2212,2212,"35th Ave SE & 228th St SE",47.790463,-122.186662,0,
2213,2213,"35th Ave SE & 228th St SE",47.790073,-122.186446,0,
2215,2215,"120th Ave NE & North Creek Pkwy N",47.774263,-122.180321,0,
2216,2216,"120th Ave NE & North Creek Pkwy N",47.774995,-122.180071,0,
2219,2219,"NE 185th St & 104th Ave NE",47.761989,-122.201682,0,
2220,2220,"NE 185th St & Ross Rd",47.761908,-122.199237,0,
2221,2221,"228th St SE & 27th Ave SE",47.791191,-122.197039,0,
2222,2222,"228th St SE & 27th Ave SE",47.791351,-122.196987,0,
2226,2226,"56th St SE & 96th Dr SE",47.945587,-122.102681,0,
2228,2228,"29th Dr SE & 228th St SE",47.793118,-122.195769,0,
2231,2231,"Village Way & W Main St",47.850342,-121.986109,0,
2233,2233,"NE 195th St & North Creek Pkwy",47.768973,-122.182864,0,
2234,2234,"NE 195th St & North Creek Pkwy",47.769167,-122.182866,0,
2237,2237,"Hwy 99 & 224th St SW",47.796442,-122.333808,0,
2284,2284,"212th St SW & 78th Ave W",47.807004,-122.339093,0,
2325,2325,"Beardslee Blvd & Ross Rd",47.767936,-122.191257,0,
2340,2340,"27th Ave NE & 88th St NE",48.076430,-122.194660,0,
2358,2358,"Quil Ceda Blvd & Quil Ceda Pkwy",48.077458,-122.186918,0,
2367,2367,"Broadway & 34th St",47.972819,-122.201491,0,
2368,2368,"Quil Ceda Blvd at Home Depot",48.080214,-122.185632,0,
2405,2405,"Hwy 99 & N 200th St",47.774581,-122.345840,0,
2407,2407,"228th St SW & 4th Ave W",47.791474,-122.237694,0,
2408,2408,"4th Ave W & 228th St SW",47.793213,-122.238291,0,
2411,2411,"4th Ave W & 228th St SW",47.792230,-122.238500,0,
2423,2423,"47th Pl W & 106th St SW",47.902472,-122.296639,0,
2424,2424,"47th Pl W & 106th St SW",47.902848,-122.296801,0,
2425,2425,"196th St SW & 30th Pl W",47.820789,-122.273854,0,
2426,2426,"196th St SW & 30th Pl W",47.820988,-122.274113,0,
2427,2427,"196th St SW & Alderwood Mall Pkwy",47.820979,-122.271781,0,
2428,2428,"196th St SW & 40th Ave W",47.820816,-122.286571,0,
2429,2429,"196th St SW & 36th Ave W",47.821050,-122.284920,0,
2430,2430,"Alderwood Mall Pkwy & 196th St SW",47.821344,-122.270833,0,
2432,2432,"Alderwood Mall Pkwy & Maple Rd",47.836172,-122.271780,0,
2433,2433,"Alderwood Mall Pkwy & Maple Rd",47.834417,-122.269981,0,
2444,2444,"148th St SW & 29th Ave W",47.864122,-122.272919,0,
2445,2445,"148th St SW & Admiralty Way",47.864249,-122.273071,0,
2446,2446,"148th St SW & Manor Way",47.864087,-122.268333,0,
2447,2447,"148th St SW & Manor Way",47.864234,-122.269209,0,
2448,2448,"Jefferson Way & 21st Ave W",47.862357,-122.261320,0,
2449,2449,"Jefferson Way & 19th Ave W",47.862071,-122.259645,0,
2450,2450,"18th Ave W & 151st Pl SW",47.860887,-122.257725,0,
2451,2451,"18th Ave W & 152nd St SW",47.860144,-122.257903,0,
2453,2453,"18th Ave W & Oak Rd",47.857285,-122.257898,0,
2454,2454,"18th Ave W & Ash Way",47.855774,-122.257731,0,
2455,2455,"18th Ave W & Ash Way",47.855606,-122.257916,0,
2456,2456,"134th St SW & Ash Way",47.876820,-122.244516,0,
2457,2457,"134th St SW & Ash Way",47.876958,-122.244554,0,
2458,2458,"Alderwood Mall Pkwy & 164th St SW",47.848061,-122.270987,0,
2459,2459,"Alderwood Mall Pkwy & 164th St SW",47.848070,-122.271322,0,
2461,2461,"88th St NE & 36th Ave NE",48.075604,-122.182074,0,
2472,2472,"Marine Dr & Lakewood Rd",48.168072,-122.357707,0,
2475,2475,"120th Ave NE & NE 195th St",47.769749,-122.180051,0,
2476,2476,"120th Ave NE & NE 195th St",47.769889,-122.180274,0,
2477,2477,"State Ave & 136th St NE",48.117936,-122.181812,0,
2478,2478,"Smokey Point Blvd & 136th St NE",48.119072,-122.181912,0,
2479,2479,"State Ave & 103rd Pl NE",48.088945,-122.173464,0,
2480,2480,"State Ave & 105th Pl NE",48.091073,-122.173579,0,
2482,2482,"Smokey Point Blvd & 186th Pl NE",48.165817,-122.184839,0,
2485,2485,"84th St SW & 44th Ave W",47.921987,-122.292837,0,
2486,2486,"84th St SW & 44th Ave W",47.922173,-122.293787,0,
2490,2490,"10th St & Ash Ave",48.057322,-122.183454,0,
2493,2493,"64th St NE & 73rd Ave NE",48.053607,-122.131958,0,
2494,2494,"64th St NE & 71st Ave NE",48.053573,-122.134938,0,
2497,2497,"64th St NE & 73rd Ave NE",48.053790,-122.133203,0,
2498,2498,"64th St NE & 71st Ave NE",48.053773,-122.136271,0,
2520,2520,"Smokey Point Blvd & 182nd St NE",48.160899,-122.183009,0,
2521,2521,"47th Ave NE & 188th St NE",48.167639,-122.166829,0,
2522,2522,"47th Ave NE & 193rd Pl NE",48.171928,-122.166910,0,
2523,2523,"Cemetery Rd & Highclover Blvd NE",48.176701,-122.164570,0,
2524,2524,"Cemetery Rd & 53rd Ave NE",48.176803,-122.159258,0,
2526,2526,"47th Ave NE & 188th St NE",48.167633,-122.167013,0,
2527,2527,"47th Ave NE & 193rd Pl NE",48.171498,-122.167100,0,
2528,2528,"Cemetery Rd & 49th Ave NE",48.176588,-122.163633,0,
2529,2529,"Cemetery Rd & 53rd Ave NE",48.176721,-122.159177,0,
2530,2530,"Smokey Point Blvd & 186th Pl NE",48.165864,-122.184690,0,
2531,2531,"188th St NE & 35th Ave NE",48.166939,-122.184063,0,
2532,2532,"91st Ave SE & 11th Pl SE",47.985834,-122.108690,0,
2550,2550,"271st St NW & 88th Ave NW",48.242248,-122.352507,0,
2551,2551,"271st St NW & 92nd Ave NW",48.242206,-122.357774,0,
2552,2552,"271st St NW & 94th Dr NW",48.242196,-122.360617,0,
2553,2553,"271st St NW & 270th St NW",48.242188,-122.364335,0,
2555,2555,"271st St NW & 101st Ave NW",48.242367,-122.369796,0,
2557,2557,"148th St SE & 51st Ave SE",47.863091,-122.163574,0,
2558,2558,"148th St SE & 51st Ave SE",47.863261,-122.163695,0,
2559,2559,"148th St SE & 48th Ave SE",47.863440,-122.167545,0,
2560,2560,"148th St SE & 48th Ave SE",47.863287,-122.167317,0,
2564,2564,"148th St SE & 30th Ave SE",47.863409,-122.191173,0,
2565,2565,"148th St SE & 30th Ave SE",47.863543,-122.191403,0,
2569,2569,"S Stillaguamish Ave & Portage St",48.185713,-122.117914,0,
2570,2570,"S Stillaguamish Ave & Portage St",48.185761,-122.118111,0,
2573,2573,"127th Ave NE & 18th St NE",48.013226,-122.059911,0,
2574,2574,"127th Ave NE & 18th St NE",48.014799,-122.060036,0,
2575,2575,"16th St NE & 127th Ave NE",48.011787,-122.060465,0,
2576,2576,"16th St NE & Main St",48.011818,-122.063572,0,
2577,2577,"16th St NE & Main St",48.011932,-122.063685,0,
2578,2578,"Village Way & W Main St",47.850498,-121.985958,0,
2582,2582,"Village Way & Sky River Pkwy",47.849813,-121.980817,0,
2598,2598,"154th St SE & Mulberry Dr",47.857846,-122.000426,0,
2599,2599,"154th St SE & Mulberry Dr",47.857714,-122.000243,0,
2602,2602,"Fryelands Blvd & 156th St SE",47.855992,-122.011805,0,
2603,2603,"Fryelands Blvd & 156th St SE",47.855496,-122.012081,0,
2610,2610,"148th St SW & 22nd Ave W",47.863981,-122.262804,0,
2611,2611,"Marine Dr NE & 14th Ave NE",48.050432,-122.212115,0,
2612,2612,"Marine Dr NE & 14th Ave NE",48.050841,-122.211963,0,
2613,2613,"Marine Dr NE & 7th Ave NE",48.042384,-122.222689,0,
2614,2614,"Marine Dr NE & 7th Dr NW",48.038192,-122.241918,0,
2615,2615,"Marine Dr NE & 7th Dr NW",48.038404,-122.242571,0,
2616,2616,"Marine Dr NE & 19th Ave NE",48.053093,-122.206298,0,
2617,2617,"36th Ave W & 179th St SW",47.836686,-122.281606,0,
2618,2618,"76th Ave W & 239th Pl SW",47.781879,-122.335266,0,
2619,2619,"172nd St NE & 19th Dr NE",48.152017,-122.207291,0,
2622,2622,"E Stanley St & S Indiana Ave",48.083332,-121.965748,0,
2623,2623,"188th St NE & 46th Ave NE",48.166952,-122.168825,0,
2624,2624,"47th Ave NE & 191st Pl NE",48.169638,-122.167040,0,
2625,2625,"47th Ave NE & 191st Pl NE",48.169877,-122.166869,0,
2626,2626,"204th St NE & 74th Ave NE",48.180771,-122.131773,0,
2627,2627,"204th St NE & 74th Ave NE",48.180910,-122.131765,0,
2628,2628,"E Stanley St & N Kentucky Ave",48.083458,-121.966229,0,
2631,2631,"2nd Ave & Cherry St",47.603219,-122.333337,0,
2638,2638,"4th Ave & Cherry St",47.604400,-122.331225,0,
2641,2641,"148th St SW & 40th Ave W",47.864090,-122.287643,0,
2642,2642,"148th St SW & 40th Ave W",47.864268,-122.287889,0,
2645,2645,"Hwy 527 & 136th St SE",47.874559,-122.214285,0,
2646,2646,"Hwy 527 & Trillium Blvd SE",47.871882,-122.216839,0,
2647,2647,"Hwy 527 & 144th St SE",47.868321,-122.218043,0,
2650,2650,"Hwy 527 & Dumas Rd",47.874000,-122.215447,0,
2651,2651,"Hwy 527 & North Creek Dr",47.870617,-122.218130,0,
2653,2653,"Hwy 527 & Mill Creek Blvd",47.854717,-122.218525,0,
2661,2661,"244th St SW & Hwy 99",47.777888,-122.343320,0,
2663,2663,"44th Ave W & 198th St SW",47.818608,-122.292207,0,
2669,2669,"4th St NE & 97th Dr NE",47.999674,-122.100593,0,
2670,2670,"99th Ave NE & 4th St NE",47.998600,-122.098356,0,
2673,2673,"220th St SW & 64th Ave W",47.799578,-122.318662,0,
2676,2676,"33rd Ave W & Alderwood Mall Blvd",47.823763,-122.277642,0,
2677,2677,"33rd Ave W & 188th St SW",47.826275,-122.277623,0,
2679,2679,"33rd Ave W & Alderwood Mall Blvd",47.823821,-122.277880,0,
2697,2697,"148th St SW & Hwy 525",47.864109,-122.277003,0,
2700,2700,"5th Ave & Seneca St",47.608238,-122.333425,0,
2702,2702,"5th Ave & Marion St",47.605927,-122.331319,0,
2721,2721,"88th St NE & 36th Ave NE",48.075780,-122.180688,0,
2725,2725,"148th St SE & Seattle Hill Rd",47.863448,-122.178865,0,
2726,2726,"148th St SE & 42nd Dr SE",47.863546,-122.176169,0,
2728,2728,"State Ave & 128th St NE",48.111461,-122.179202,0,
2729,2729,"State Ave & 128th St NE",48.111091,-122.179369,0,
2733,2733,"52nd Ave W & 154th St SW",47.858460,-122.303471,0,
2746,2746,"Hwy 527 & NE 190th St",47.766497,-122.210154,0,
2751,2751,"228th St SE & 9th Ave SE",47.791376,-122.221208,0,
2752,2752,"228th St SE & 9th Ave SE",47.791166,-122.220977,0,
2755,2755,"72nd Ave W & 210th St SW",47.808362,-122.330060,0,
2756,2756,"72nd Ave W & 210th St SW",47.808426,-122.330265,0,
2757,2757,"228th St SE & 4th Ave SE",47.791350,-122.226740,0,
2758,2758,"228th St SE & 4th Ave SE",47.791212,-122.225872,0,
2760,2760,"College SB Station at 204th St SW",47.813736,-122.321744,0,
2762,2762,"Smokey Point Blvd & 152nd St NE",48.133940,-122.183340,0,
2775,2775,"Brier Rd & 232nd St SW",47.786282,-122.274353,0,
2776,2776,"236th St SW & Brier Rd",47.784361,-122.273367,0,
2779,2779,"Lincoln Way NB Station",47.873354,-122.273153,0,
2780,2780,"Lincoln Way SB Station",47.872642,-122.274294,0,
2787,2787,"4th Ave W NB Station",47.909646,-122.239297,0,
2788,2788,"4th Ave W SB Station",47.909968,-122.239459,0,
2810,2810,"Pecks Dr SB Station",47.941407,-122.217820,0,
2815,2815,"50th St NB Station",47.952124,-122.213395,0,
2816,2816,"50th St SB Station",47.951626,-122.213903,0,
2847,2847,"N Olympic Ave & E 3rd St",48.194416,-122.126518,0,
2857,2857,"NE 8th St & 106th Ave NE",47.617517,-122.199832,0,
2858,2858,"NE 8th St & 102nd Ave NE",47.617541,-122.204908,0,
2862,2862,"244th St SW & 1st Ave NE",47.777736,-122.330271,0,
2863,2863,"Hwy 527 & 186th Pl SE",47.827594,-122.209167,0,
2865,2865,"W Main St & 174th Dr SE",47.850332,-121.997382,0,
2866,2866,"W Main St & 174th Dr SE",47.850482,-121.997229,0,
2871,2871,"Beverly Park Rd & Picnic Point Rd",47.870407,-122.296072,0,
2886,2886,"Broadway & Wall St",47.977597,-122.201680,0,
2887,2887,"Broadway & Pacific Ave",47.977134,-122.201341,0,
2888,2888,"Smokey Point Blvd & 142nd St NE",48.126288,-122.183691,0,
2889,2889,"Smokey Point Blvd & 147th St NE",48.130762,-122.183140,0,
2890,2890,"Smokey Point Blvd & 142nd St NE",48.125772,-122.184088,0,
2891,2891,"Smokey Point Blvd & 147th St NE",48.129714,-122.183574,0,
2903,2903,"NE 185th St & Beardslee Blvd",47.762031,-122.197918,0,
2904,2904,"NE 185th St & 103rd Ave NE",47.762008,-122.203200,0,
2913,2913,"Airport Rd & Kasch Park Rd",47.917538,-122.271869,0,
2914,2914,"NE 10th St & 108th Ave NE",47.619190,-122.196810,0,
2921,2921,"220th St SW & 56th Ave W",47.799261,-122.307767,0,
2922,2922,"220th St SW & 55th Ave W",47.799399,-122.307009,0,
2923,2923,"Marine Dr & Lakewood Rd",48.168267,-122.357532,0,
2925,2925,"Olympic View Dr & 180th St SW",47.836748,-122.324952,0,
2926,2926,"Olympic View Dr & 181st Pl W",47.833123,-122.328823,0,
2927,2927,"Olympic View Dr & 73rd Ave W",47.830264,-122.332667,0,
2928,2928,"Olympic View Dr & 73rd Ave W",47.830321,-122.332313,0,
2929,2929,"Olympic View Dr & 181st Pl W",47.833643,-122.328453,0,
2930,2930,"Olympic View Dr & 180th St SW",47.836596,-122.325160,0,
2931,2931,"Olympic View Dr & 76th Ave W",47.831439,-122.337003,0,
2932,2932,"76th Ave W & 190th St SW",47.826424,-122.336417,0,
2934,2934,"76th Ave W & 190th St SW",47.826156,-122.335906,0,
2935,2935,"76th Ave W & Olympic View Dr",47.830870,-122.337615,0,
2936,2936,"276th St NW & 73rd Ave NW",48.246594,-122.332609,0,
2937,2937,"Seattle Hill Rd & 32nd Ave SE",47.858657,-122.191185,0,
2938,2938,"Seattle Hill Rd & 32nd Ave SE",47.859058,-122.190303,0,
2939,2939,"276th St NW & 74th Ave NW",48.246714,-122.333419,0,
2940,2940,"Trillium Blvd SE & 142nd Pl SE",47.869192,-122.210983,0,
2941,2941,"Trillium Blvd SE & 14th Dr SE",47.870914,-122.212741,0,
2942,2942,"Trillium Blvd SE & Hwy 527",47.870847,-122.216298,0,
2943,2943,"Trillium Blvd SE & 14th Dr SE",47.870820,-122.213255,0,
2944,2944,"Trillium Blvd SE & 142nd Pl SE",47.869066,-122.211144,0,
2945,2945,"Trillium Blvd SE & 144th Pl SE",47.867608,-122.209879,0,
2947,2947,"88th St NE & 61st Dr NE",48.074714,-122.146826,0,
2948,2948,"88th St NE & 57th Dr NE",48.074958,-122.153419,0,
2950,2950,"88th St NE & 51st Ave NE",48.075301,-122.161276,0,
2955,2955,"76th Pl NW & Marine Dr",48.065653,-122.277262,0,
2956,2956,"Totem Beach Rd & 76th Pl NW",48.064998,-122.278620,0,
2957,2957,"Totem Beach Rd & 76th Pl NW",48.064867,-122.278762,0,
2959,2959,"276th St NW & Cedarhome Dr NW",48.246739,-122.341435,0,
2960,2960,"72nd Ave NW & Tyler Pl NW",48.245548,-122.330432,0,
2961,2961,"72nd Ave NW & 272nd St NW",48.242766,-122.330400,0,
2962,2962,"72nd Ave NW & Tyler Pl NW",48.245360,-122.330267,0,
2963,2963,"72nd Ave NW & 272nd St NW",48.243221,-122.330235,0,
2966,2966,"Mill Creek Rd & Village Green Dr",47.851867,-122.208408,0,
2967,2967,"Mill Creek Rd & Village Green Dr",47.852000,-122.208253,0,
2968,2968,"Seattle Hill Rd & 2600 Block",47.855059,-122.196266,0,
2969,2969,"Seattle Hill Rd & 2600 Block",47.855230,-122.196238,0,
2970,2970,"204th St SW & Larch Way",47.813757,-122.287292,0,
2975,2975,"196th St SW & 48th Ave W",47.821159,-122.298470,0,
2988,2988,"Bickford Ave & 62nd Pl SE",47.942262,-122.108419,0,
2993,2993,"Ash Way & 153rd St SW",47.858987,-122.253461,0,
2994,2994,"Ash Way & 149th St SW",47.863062,-122.249946,0,
2995,2995,"Ash Way & 141st Pl SW",47.869988,-122.247279,0,
2997,2997,"Ash Way & 135th St SW",47.875439,-122.247512,0,
2998,2998,"Ash Way & 140th St SW",47.871341,-122.247498,0,
2999,2999,"Ash Way & 149th St SW",47.862898,-122.250328,0,
3000,3000,"Ash Way & 153rd Pl SW",47.858194,-122.254383,0,
3004,3004,"Ash Way & 137th St SW",47.873723,-122.247298,0,
3016,3016,"132nd St SE & 21st Dr SE",47.877986,-122.202946,0,
3019,3019,"100th St SW NB Station",47.907863,-122.271092,0,
3020,3020,"112th St SW NB Station",47.896822,-122.263542,0,
3022,3022,"Gibson Rd NB Station",47.881994,-122.249928,0,
3023,3023,"4th Ave W NB Station",47.882028,-122.239319,0,
3024,3024,"3rd Ave SE NB Station",47.882114,-122.228483,0,
3027,3027,"Trillium Blvd NB Station",47.871586,-122.217080,0,
3031,3031,"196th St SE NB Station",47.820544,-122.207281,0,
3033,3033,"220th St SE NB Station",47.798869,-122.211572,0,
3037,3037,"Kasch Park Rd SB Station",47.917928,-122.271872,0,
3038,3038,"100th St SW SB Station",47.907224,-122.271264,0,
3039,3039,"112th St SW SB Station",47.896164,-122.263520,0,
3041,3041,"Gibson Rd SB Station",47.881764,-122.249921,0,
3042,3042,"4th Ave W SB Station",47.881800,-122.239181,0,
3043,3043,"3rd Ave SE SB Station",47.881877,-122.227604,0,
3046,3046,"Trillium Blvd SB Station",47.870936,-122.217941,0,
3050,3050,"196th St SE SB Station",47.819965,-122.207621,0,
3062,3062,"Ash Way & 157th St SW",47.857060,-122.255081,0,
3063,3063,"20th Ave SE & 214th St SE",47.802711,-122.206370,0,
3064,3064,"Fryelands Blvd & 161st St SE",47.852152,-122.011785,0,
3065,3065,"Fryelands Blvd & 161st St SE",47.851602,-122.012109,0,
3066,3066,"154th St SE & 168th Ave SE",47.857737,-122.005141,0,
3067,3067,"154th St SE & 168th Ave SE",47.857840,-122.005177,0,
3069,3069,"N Kelsey St & W Columbia St",47.855883,-121.977315,0,
3071,3071,"N Kelsey St & W Hill St",47.856388,-121.977125,0,
3073,3073,"State Ave & 122nd St NE",48.103429,-122.176316,0,
3075,3075,"Hwy 9 & Soper Hill Rd",48.021143,-122.109528,0,
3076,3076,"Hwy 9 & Soper Hill Rd",48.021769,-122.109100,0,
3082,3082,"20th St SE & 79th Ave SE",47.978206,-122.125679,0,
3084,3084,"Ingraham Blvd & 88th St NE",48.074279,-122.123172,0,
3085,3085,"Ingraham Blvd & 76th Ave NE",48.076887,-122.126312,0,
3086,3086,"Ingraham Blvd & 74th Dr NE",48.075388,-122.131313,0,
3087,3087,"20th St SE & 79th Ave SE",47.977982,-122.125123,0,
3088,3088,"83rd Ave NE & 82nd St NE",48.069018,-122.119147,0,
3089,3089,"83rd Ave NE & 83rd Dr NE",48.065602,-122.119422,0,
3090,3090,"83rd Ave NE & 72nd Pl NE",48.061454,-122.119497,0,
3091,3091,"83rd Ave NE & 69th St NE",48.058587,-122.119465,0,
3096,3096,"64th St NE & Hwy 9",48.053336,-122.111226,0,
3098,3098,"Ingraham Blvd & 74th Dr NE",48.075861,-122.130418,0,
3099,3099,"Ingraham Blvd & 76th Ave NE",48.076772,-122.126471,0,
3100,3100,"Ingraham Blvd & 87th Pl NE",48.073742,-122.122875,0,
3102,3102,"83rd Ave NE & 82nd St NE",48.068848,-122.119387,0,
3103,3103,"83rd Ave NE & 83rd Dr NE",48.065145,-122.119678,0,
3104,3104,"83rd Ave NE & 72nd Pl NE",48.060743,-122.119713,0,
3105,3105,"83rd Ave NE & 69th St NE",48.057555,-122.119674,0,
3108,3108,"Market Pl & Hwy 9",47.997431,-122.102675,0,
3109,3109,"88th St NE & 57th Dr NE",48.074768,-122.152124,0,
3110,3110,"64th St NE & Hwy 9",48.053582,-122.114589,0,
3113,3113,"91st Ave SE & 2nd Pl SE",47.994294,-122.108531,0,
3114,3114,"20th St SE & 83rd Ave SE",47.978024,-122.119021,0,
3115,3115,"20th St SE & 83rd Ave SE",47.978179,-122.119921,0,
3118,3118,"91st Ave NE & 1st St SE",47.995836,-122.108694,0,
3120,3120,"91st Ave SE & 2nd Pl SE",47.993797,-122.108777,0,
3121,3121,"172nd St NE & 23rd Ave NE",48.151979,-122.199916,0,
3122,3122,"172nd St NE & 23rd Ave NE",48.152171,-122.200111,0,
3123,3123,"Bickford Ave & Weaver Rd",47.938947,-122.106834,0,
3124,3124,"Bickford Ave & 23rd St",47.939502,-122.106877,0,
3125,3125,"Second St & Ave E",47.912968,-122.100067,0,
3126,3126,"Bickford Ave & 62nd Pl SE",47.942559,-122.108873,0,
3127,3127,"Ave D & Ferguson Park Rd",47.929643,-122.099878,0,
3128,3128,"Ave D & 14th St SE",47.929528,-122.100051,0,
3129,3129,"132nd St SE & 39th Ave SE",47.877746,-122.179589,0,
3130,3130,"132nd St SE & 39th Ave SE",47.878025,-122.180936,0,
3131,3131,"2nd St & Cedar Ave",47.912886,-122.091212,0,
3139,3139,"75th St SW & 16th Ave W",47.929623,-122.254615,0,
3141,3141,"Hardeson Rd & 75th St SW",47.929961,-122.247910,0,
3143,3143,"75th St SW & 16th Ave W",47.929777,-122.255388,0,
3145,3145,"Airport Rd & Kasch Park Rd",47.917875,-122.271469,0,
3146,3146,"Hardeson Rd & 72nd St SW",47.932126,-122.249753,0,
3147,3147,"Hardeson Rd & 75th St SW",47.931581,-122.249094,0,
3149,3149,"30th Ave NE & 34th Ave NE",48.093764,-122.190759,0,
3150,3150,"Quarry Rd & 100th St NE",48.085788,-121.990534,0,
3151,3151,"100th St NE & Penny Ave",48.086579,-121.985509,0,
3152,3152,"100th St NE & Jordan Rd",48.086849,-121.980759,0,
3153,3153,"100th St NE & Eagle View Dr",48.086758,-121.985194,0,
3154,3154,"100th St NE & Granite Falls High School",48.086710,-121.987836,0,
3155,3155,"W Stanley St & Jordan Rd",48.083085,-121.976645,0,
3160,3160,"Meridian Ave N & N 200th St",47.774565,-122.335141,0,
3162,3162,"Bothell Way NE & Reder Way",47.763696,-122.208007,0,
3164,3164,"220th St SE & 20th Ave SE",47.798778,-122.207120,0,
3165,3165,"220th St SE & 23rd Dr SE",47.799259,-122.202139,0,
3166,3166,"26th Ave SE & 220th St SE",47.798042,-122.198823,0,
3167,3167,"26th Ave SE & 223rd St SE",47.795883,-122.197436,0,
3168,3168,"26th Ave SE & 223rd St SE",47.796007,-122.197220,0,
3169,3169,"26th Ave SE & 220th St SE",47.797320,-122.198235,0,
3170,3170,"220th St SE & 26th Ave SE",47.799374,-122.199401,0,
3171,3171,"220th St SE & 20th Ave SE",47.799308,-122.205839,0,
3172,3172,"20th St SE & Hwy 9",47.977969,-122.101368,0,
3173,3173,"99th Ave SE & 15th Pl SE",47.982235,-122.098282,0,
3174,3174,"99th Ave SE & 6th Pl SE",47.990376,-122.098223,0,
3176,3176,"99th Ave SE & 2nd St SE",47.994072,-122.098396,0,
3177,3177,"99th Ave SE & 6th Pl SE",47.990538,-122.098442,0,
3178,3178,"99th Ave SE & 15th Pl SE",47.982378,-122.098487,0,
3192,3192,"20th St SE & 99th Ave SE",47.978222,-122.098990,0,
3193,3193,"Cathcart Way & Snohomish Cascade Dr",47.872480,-122.143868,0,
3194,3194,"Cathcart Way & Puget Park Dr",47.862939,-122.130893,0,
3195,3195,"134th Pl SE & Snohomish Cascade Dr",47.873188,-122.144781,0,
3196,3196,"Cathcart Way & Puget Park Dr",47.863197,-122.131021,0,
3197,3197,"196th St SW & 52nd Ave W",47.821019,-122.302492,0,
3198,3198,"84th St SW & SR 525",47.921899,-122.299391,0,
3218,3218,"Broadway & 14th St",47.999241,-122.200902,0,
3219,3219,"Broadway & 33rd St",47.973873,-122.201233,0,
3220,3220,"148th St SW & 22nd Pl W",47.864128,-122.262977,0,
3274,3274,"1st St & Mukilteo Station",47.949234,-122.298720,0,
3275,3275,"1st St & Mukilteo Station",47.949272,-122.298879,0,
3280,3280,"Hwy 525 & 5th St",47.945079,-122.304081,0,
3281,3281,"Hwy 525 & 5th St",47.945131,-122.304367,0,
950,950,"Shoultes Rd & 100th St NE",48.086396,-122.170662,0,
1444,1444,"Shoultes Rd & 100th St NE",48.086515,-122.170817,0,
2690,2690,"State Ave & 100th St NE",48.086152,-122.172339,0,
2856,2856,"NE 10th St & 102nd Ave NE",47.619172,-122.204880,0,
2675,2675,"105th St NE & 30th Ave NE",48.090812,-122.191717,0,
836,836,"N Broadway & Tower St",48.006063,-122.196786,0,
1328,1328,"N Broadway & Tower St",48.006209,-122.197117,0,
1053,1053,"10th St & Hwy 2",47.852792,-121.692300,0,
904,904,"I-5 & 116th St NE Flyer Stop",48.100286,-122.184348,0,
1398,1398,"I-5 & 116th St NE Flyer Stop",48.100365,-122.185380,0,
1473,1473,"Hwy 527 & 16th Ave SE",47.876713,-122.212238,0,13216
2137,2137,"132nd St SE & 16th Ave SE",47.878304,-122.212188,0,13216
3026,3026,"16th Ave SE NB Station",47.878272,-122.211597,0,13216
3045,3045,"16th Ave SE SB Station",47.878070,-122.211353,0,13216
3159,3159,"132nd St SE & 16th Ave SE",47.878073,-122.210425,0,13216
3025,3025,"Dumas Rd NB Station",47.880235,-122.219304,0,
3044,3044,"Dumas Rd SB Station",47.880043,-122.219476,0,
32,32,"134th Pl SE & 58th Dr SE",47.876499,-122.155084,0,
1565,1565,"134th Pl SE & 58th Dr SE",47.876175,-122.153081,0,
175,175,"132nd St SE & Seattle Hill Rd",47.877631,-122.164568,0,
1562,1562,"132nd St SE & Seattle Hill Rd",47.877943,-122.166273,0,
2704,2704,"Hwy 522 & 132nd Ave NE Flyer Stop",47.757560,-122.164572,0,
2705,2705,"Hwy 522 & 132nd Ave NE Flyer Stop",47.758740,-122.164734,0,
140,140,"Puget Park Dr & 136th St SE",47.873977,-122.154283,0,137pp
942,942,"Puget Park Dr & 136th St SE",47.874323,-122.153562,0,137pp
2562,2562,"148th St SE & 35th Ave SE",47.863338,-122.186385,0,
2563,2563,"148th St SE & 35th Ave SE",47.863485,-122.186352,0,
184,184,"152nd St NE & 51st Ave NE",48.133831,-122.162749,0,
1570,1570,"152nd St NE & 51st Ave NE",48.133917,-122.162903,0,
616,616,"36th Ave W & 166th Pl SW",47.847937,-122.281746,0,
1101,1101,"36th Ave W & 165th Pl SW",47.849266,-122.281987,0,
2872,2872,"164th St SW & 36th Ave W",47.849936,-122.281228,0,
2873,2873,"164th St SW & 36th Ave W",47.850163,-122.280226,0,
191,191,"164th St SW & 6th Ave W",47.849414,-122.240214,0,
1574,1574,"164th St SW & 2nd Pl W",47.849570,-122.238079,0,
195,195,"164th St SW & Spruce Way",47.849950,-122.284221,0,
1582,1582,"164th St SW & Spruce Way",47.850184,-122.285312,0,
192,192,"164th St SE & Mill Creek Blvd",47.849386,-122.219830,0,164z7
987,987,"Hwy 527 & Mill Creek Rd",47.850390,-122.217661,0,164z7
1474,1474,"Hwy 527 & 164th St SE",47.848321,-122.217214,0,164z7
1580,1580,"164th St SE & Mill Creek Blvd",47.849495,-122.223188,0,164z7
2568,2568,"Mill Creek Rd & Hwy 527",47.849455,-122.216398,0,164z7
3029,3029,"164th St SE NB Station",47.850050,-122.217486,0,164z7
3048,3048,"164th St SE SB Station",47.849202,-122.217555,0,164z7
200,200,"168th St SE & 28th Dr SE",47.845502,-122.194108,0,
203,203,"168th St SE & 30th Dr SE",47.845402,-122.190404,0,
1589,1589,"168th St SE & 30th Dr SE",47.845555,-122.190467,0,
657,657,"44th Ave W & Cobblestone Dr",47.845730,-122.292420,0,
1127,1127,"44th Ave W & 168th St SW",47.845964,-122.292637,0,
1003,1003,"Hwy 99 & 168th St SW",47.847635,-122.294070,0,
1499,1499,"Hwy 99 & 168th St SW",47.845627,-122.295239,0,
204,204,"168th St SW & 60th Ave W",47.846501,-122.315441,0,
1587,1587,"168th St SW & 60th Ave W",47.846689,-122.313829,0,
215,215,"180th St SE & Hwy 527",47.834562,-122.209234,0,180z7
977,977,"Hwy 527 & 180th St SE",47.835275,-122.210952,0,180z7
1483,1483,"Hwy 527 & 180th St SE",47.834800,-122.211101,0,180z7
1600,1600,"180th St SE & Hwy 527",47.834791,-122.208600,0,180z7
3030,3030,"180th St SE NB Station",47.834958,-122.210752,0,180z7
3049,3049,"180th St SE SB Station",47.834326,-122.210721,0,180z7
2744,2744,"NE 185th St & 101st Ave NE",47.761760,-122.205146,0,
2745,2745,"NE 185th St & 101st Ave NE",47.761863,-122.205417,0,
232,232,"196th St SW & 74th Ave W",47.821327,-122.334495,0,19676
1251,1251,"76th Ave W & 196th St SW",47.820335,-122.335965,0,19676
1619,1619,"196th St SW & 76th Ave W",47.821550,-122.336378,0,19676
2933,2933,"76th Ave W & 196th St SW",47.821864,-122.335772,0,19676
3061,3061,"76th Ave W & 194th St SW",47.822605,-122.335991,0,19676
233,233,"196th St SW & 80th Ave W",47.821379,-122.340766,0,
1620,1620,"196th St SW & 80th Ave W",47.821537,-122.341995,0,
1034,1034,"State Ave & 1st St",48.049414,-122.176887,0,
1523,1523,"State Ave & 2nd St",48.050261,-122.177177,0,
267,267,"204th St NE & 77th Ave NE",48.180759,-122.125338,0,
1647,1647,"204th St NE & Olympic Pl NE",48.180947,-122.127629,0,
272,272,"N 205th St & Aurora Ave N",47.777691,-122.343484,0,205a
274,274,"N 205th St & Hwy 99",47.777722,-122.348660,0,205a
1017,1017,"Aurora Ave N & 244th St SW",47.778290,-122.346083,0,205a
1710,1710,"N 205th St & Hwy 99",47.777867,-122.348546,0,205a
2089,2089,"Hwy 99 & N 205th St",47.777264,-122.346379,0,205a
984,984,"Hwy 527 & Maltby Rd",47.810890,-122.207404,0,208z7
985,985,"Hwy 527 & 214th St SE",47.804512,-122.208086,0,208z7
1479,1479,"Hwy 527 & Maltby Rd",47.808545,-122.207876,0,208z7
3032,3032,"208th St SE NB Station",47.810159,-122.207444,0,208z7
3051,3051,"208th St SE SB Station",47.808928,-122.207877,0,208z7
3116,3116,"20th St SE & 91st Ave SE",47.978119,-122.109439,0,
3117,3117,"91st Ave SE & 20th St SE",47.978819,-122.108796,0,
1633,1633,"20th St NE & 123rd Ave NE",48.015610,-122.064494,0,
2225,2225,"20th St NE & Main St",48.015488,-122.063809,0,
710,710,"52nd Ave W & 212th St SW",47.806875,-122.303059,0,
1192,1192,"52nd Ave W & 212th St SW",47.805805,-122.303274,0,
1663,1663,"212th St SW & 74th Ave W",47.806973,-122.332124,0,
2662,2662,"212th St SW & 74th Ave W",47.806817,-122.331858,0,
284,284,"212th St SW & 84th Ave W",47.806858,-122.344821,0,21284
780,780,"84th Ave W & 214th Pl SW",47.805552,-122.346439,0,21284
1276,1276,"84th Ave W & Bowdoin Way",47.806016,-122.346670,0,21284
1664,1664,"212th St SW & 84th Ave W",47.807008,-122.344968,0,21284
1821,1821,"Main St & 84th Ave W",47.808302,-122.347950,0,21284
297,297,"220th St SW & 58th Ave W",47.799356,-122.311625,0,
1676,1676,"220th St SW & 58th Ave W",47.799593,-122.310730,0,
291,291,"220th St SW & 76th Ave W",47.799592,-122.334841,0,22099
298,298,"220th St SW & 70th Ave W",47.799492,-122.328224,0,22099
1013,1013,"Hwy 99 & 220th St SW",47.800126,-122.331155,0,22099
1509,1509,"Hwy 99 & 220th St SW",47.798918,-122.332467,0,22099
1667,1667,"220th St SW & 70th Ave W",47.799713,-122.328461,0,22099
1675,1675,"220th St SW & Hwy 99",47.799801,-122.333905,0,22099
604,604,"29th Ave W & 228th St SW",47.790280,-122.271894,0,
1687,1687,"228th St SW & 29th Ave W",47.792082,-122.272403,0,
312,312,"228th St SW & 42nd Pl W",47.791789,-122.289755,0,22844
655,655,"44th Ave W & 228th St SW",47.792500,-122.292131,0,22844
661,661,"44th Ave W & 229th Pl SW",47.790340,-122.292087,0,22844
1137,1137,"44th Ave W & 228th St SW",47.791596,-122.292339,0,22844
1683,1683,"228th St SW & 42nd Pl W",47.791946,-122.290308,0,22844
2763,2763,"228th St SW & 45th Pl W",47.791838,-122.293970,0,22844
2774,2774,"228th St SW & 46th Ave W",47.791982,-122.294887,0,22844
1160,1160,"48th Ave W & 228th St SW",47.791542,-122.297750,0,
2771,2771,"48th Ave W & 228th St SW",47.791695,-122.297546,0,
2406,2406,"228th St SW & Meridian Ave S",47.791455,-122.234091,0,
2759,2759,"228th St SE & Meridian Ave S",47.791232,-122.232444,0,
308,308,"228th St SE & Hwy 527",47.791198,-122.214209,0,228z7
989,989,"Hwy 527 & 228th St SE",47.790665,-122.217062,0,228z7
1481,1481,"Hwy 527 & 228th St SE",47.789981,-122.218207,0,228z7
1680,1680,"228th St SE & 15th Ave SE",47.791426,-122.213582,0,228z7
2749,2749,"228th St SE & 10th Ave SE",47.791431,-122.218317,0,228z7
2750,2750,"228th St SE & 10th Ave SE",47.791173,-122.218462,0,228z7
720,720,"56th Ave W & 232nd St SW",47.788938,-122.308329,0,
1207,1207,"56th Ave W & 232nd St SW",47.788846,-122.308554,0,
991,991,"Hwy 527 & 240th St SE",47.780814,-122.219748,0,
2958,2958,"Hwy 527 & 240th St SE",47.779410,-122.219155,0,
2554,2554,"272nd Pl NW & 100th Ave NW",48.243675,-122.367661,0,
3326,3326,"272nd Pl NW & 99th Ave NW",48.243660,-122.368064,0,
557,557,"Hwy 2 & N Lewis St",47.858952,-121.969687,0,
1918,1918,"Hwy 2 & Chain Lake Rd",47.859731,-121.971739,0,
2349,2349,"2nd Ave Ext S & Yesler Way",47.601250,-122.331703,0,
243,243,"Second St & Maple Ave",47.912623,-122.088507,0,
244,244,"Second St & Pine Ave",47.912624,-122.085191,0,
1628,1628,"Second St & Pine Ave",47.912773,-122.087022,0,
2909,2909,"2nd Ave & Seneca St",47.606141,-122.336024,0,
556,556,"Hwy 2 & Woods Creek Rd",47.858215,-121.966198,0,
1923,1923,"Hwy 2 & Woods Creek Rd",47.858463,-121.966173,0,
614,614,"35th Ave W & 148th St SW",47.863133,-122.280332,0,
1097,1097,"35th Ave W & 151st Pl SW",47.862219,-122.280532,0,
2442,2442,"148th St SW & 35th Ave W",47.864109,-122.279830,0,
2443,2443,"148th St SW & 35th Ave W",47.864251,-122.279310,0,
2364,2364,"Broadway & 38th St",47.967750,-122.200969,0,
2366,2366,"Broadway & 38th St",47.967161,-122.201230,0,
609,609,"3rd Ave S & James St",47.810424,-122.380211,0,
1094,1094,"3rd Ave S & James St",47.810301,-122.380408,0,
1778,1778,"Dayton St & Sunset Ave",47.809799,-122.382225,0,
2727,2727,"Dayton St & 2nd Ave S",47.809656,-122.382406,0,
2350,2350,"I-405 & NE 195th St Flyer Stop",47.769422,-122.188769,0,
2850,2850,"Totem Lake Fwy Station",47.715427,-122.185541,0,
2851,2851,"Totem Lake Fwy Station",47.715440,-122.185817,0,
2409,2409,"4th Ave W & 224th St SW",47.795356,-122.238292,0,
2410,2410,"4th Ave W & 224th St SW",47.794630,-122.238488,0,
2713,2713,"44th Ave W & 196th St SW",47.819934,-122.292573,0,
759,759,"I-5 & NE 45th St Fwy Station",47.661775,-122.320846,0,
639,639,"4th St & Alder Ave",47.862845,-121.816385,0,
1123,1123,"4th St & Main St",47.862508,-121.816568,0,
905,905,"I-5 & 4th St Flyer Stop",48.052499,-122.183535,0,
1397,1397,"I-5 & Marine Dr NE Flyer Stop",48.051211,-122.185586,0,
2465,2465,"4th St & Beach Ave",48.051953,-122.181834,0,
640,640,"4th Ave S & S Jackson St",47.598783,-122.328887,0,
343,343,"4th St & Columbia Ave",48.051727,-122.175540,0,
1721,1721,"4th St & Columbia Ave",48.051922,-122.175494,0,
2976,2976,"4th Ave & Pine St",47.611077,-122.337372,0,
697,697,"51st Ave NE & 117th Pl NE",48.100696,-122.162110,0,
1178,1178,"51st Ave NE & 117th Pl NE",48.101085,-122.162296,0,
965,965,"Hwy 525 & 92nd St SW",47.915553,-122.297708,0,
1459,1459,"Hwy 525 & 92nd St SW",47.914784,-122.297211,0,
821,821,"Beverly Park Rd & Hwy 525",47.881475,-122.281387,0,
966,966,"Hwy 525 & Beverly Park Rd",47.883781,-122.280517,0,
1310,1310,"Beverly Park Rd & Hwy 525",47.882195,-122.280916,0,
1460,1460,"Hwy 525 & Beverly Park Rd",47.882160,-122.279909,0,
970,970,"Hwy 525 & Lincoln Way",47.873959,-122.276138,0,
1467,1467,"Hwy 525 & Lincoln Way",47.873646,-122.276727,0,
2483,2483,"52nd Ave W & Beverly Park Rd",47.866017,-122.303404,0,
513,513,"Hwy 530 & Jim Creek Rd",48.236294,-122.061369,0,
509,509,"Hwy 530 & Oso Loop Rd (West)",48.270632,-121.931592,0,
514,514,"Hwy 530 & Lake Cavanaugh Rd",48.270166,-121.934359,0,
1880,1880,"Hwy 530 & Lake Cavanaugh Rd",48.270272,-121.934658,0,
1891,1891,"Hwy 530 & 223rd Ave NE",48.271327,-121.928420,0,
2706,2706,"5th Ave S & S Jackson St",47.598591,-122.327766,0,
685,685,"5th Ave & James St",47.603438,-122.328821,0,
2290,2290,"5th Ave & Jefferson St",47.603157,-122.328806,0,
2698,2698,"5th Ave & Pine St",47.611807,-122.336694,0,
1026,1026,"State Ave & 5th St",48.053110,-122.176858,0,
1524,1524,"State Ave & 6th St",48.053396,-122.177134,0,
546,546,"Terrace St & 5th Ave",47.602055,-122.328289,0,
1732,1732,"64th St NE & 67th Ave NE",48.053764,-122.141511,0,
3093,3093,"64th St NE & 67th Ave NE",48.053543,-122.140208,0,
3107,3107,"67th Ave NE & 64th St NE",48.054135,-122.140736,0,
2491,2491,"64th St NE & 83rd Ave NE",48.053469,-122.121519,0,
2495,2495,"64th St NE & 83rd Ave NE",48.053688,-122.122950,0,
3092,3092,"83rd Ave NE & 65th Pl NE",48.055225,-122.119397,0,
3106,3106,"83rd Ave NE & 65th Pl NE",48.054929,-122.119608,0,
2946,2946,"88th St NE & 67th Ave NE",48.074599,-122.141566,0,
3097,3097,"Ingraham Blvd & 68th Ave NE",48.074276,-122.138629,0,
265,265,"204th St NE & 67th Ave NE",48.180806,-122.139599,0,
2525,2525,"204th St NE & 67th Ave NE",48.180958,-122.141332,0,
760,760,"72nd Ave NW & 265th St NW",48.237477,-122.330087,0,
1244,1244,"72nd Ave NW & 267th Pl NW",48.238311,-122.330388,0,
1245,1245,"72nd Ave NW & 265th St NW",48.236746,-122.330360,0,
1254,1254,"76th Ave W & 206th St SW",47.811976,-122.335880,0,
1263,1263,"76th Ave W & 208th St SW",47.810183,-122.335882,0,
1230,1230,"67th Ave NE & Grove St",48.064009,-122.140941,0,
1791,1791,"Grove St & 67th Ave NE",48.064523,-122.141994,0,
549,549,"Hwy 2 & 179th Ave SE",47.865270,-121.990063,0,
585,585,"179th Ave SE & 147th St SE",47.864414,-121.990567,0,
1073,1073,"179th Ave SE & 147th St SE",47.864092,-121.990785,0,
1915,1915,"Hwy 2 & 179th Ave SE",47.866089,-121.991505,0,
3083,3083,"84th St NE & 83rd Ave NE",48.072111,-122.119444,0,
3101,3101,"84th St NE & 83rd Ave NE",48.071950,-122.119925,0,
791,791,"88th Ave NW & 270th St NW",48.240528,-122.351834,0,
469,469,"Market Pl & 91st Ave NE",47.997817,-122.107895,0,
1833,1833,"Market Pl & 91st Ave NE",47.997993,-122.107695,0,
3119,3119,"91st Ave SE & 1st St SE",47.996159,-122.108455,0,
533,533,"Hwy 92 & 147th Ave NE",48.051880,-122.032340,0,
1900,1900,"Hwy 92 & 147th Ave NE",48.051217,-122.033259,0,
2668,2668,"Airport Rd & 94th St SW",47.913753,-122.271917,0,
3161,3161,"Airport Rd & 94th St SW",47.913864,-122.271433,0,
181,181,"148th St SW & Hwy 99",47.864079,-122.284500,0,99148
1000,1000,"Hwy 99 & 148th St SW",47.864769,-122.281161,0,99148
1497,1497,"Hwy 99 & 148th St SW",47.863356,-122.282952,0,99148
1568,1568,"148th St SW & Hwy 99",47.864289,-122.284669,0,99148
2777,2777,"148th St SW NB Station",47.863931,-122.281933,0,99148
2778,2778,"148th St SW SB Station",47.863767,-122.282573,0,99148
1005,1005,"Hwy 99 & 176th St SW",47.840095,-122.298508,0,99176r
1500,1500,"Hwy 99 & 174th Pl SW",47.840534,-122.298584,0,99176r
1501,1501,"Hwy 99 & 176th St SW",47.838184,-122.300604,0,99176r
2767,2767,"Cherry Hill NB Station at 176th St SW",47.839547,-122.298980,0,99176r
2770,2770,"International SB Station at 174th Pl SW",47.840824,-122.298334,0,99176r
237,237,"196th St SW & Hwy 99",47.821090,-122.316489,0,99196r
239,239,"196th St SW & 58th Pl W",47.821030,-122.312674,0,99196r
1007,1007,"Hwy 99 & 196th St SW",47.822148,-122.314045,0,99196r
1503,1503,"Hwy 99 & 196th St SW",47.820482,-122.315920,0,99196r
1616,1616,"196th St SW & 58th Pl W",47.821274,-122.312670,0,99196r
1623,1623,"196th St SW & Hwy 99",47.821346,-122.316979,0,99196r
2764,2764,"Crossroads SB Station at 196th St SW",47.820787,-122.315656,0,99196r
3247,3247,"196th St SW NB Station",47.821764,-122.314437,0,99196r
253,253,"200th St SW & 64th Ave W",47.817530,-122.319062,0,99200
1008,1008,"Hwy 99 & 200th St SW",47.818148,-122.317480,0,99200
1504,1504,"Hwy 99 & 200th St SW",47.817250,-122.318702,0,99200
1641,1641,"200th St SW & 66th Pl W",47.817732,-122.321641,0,99200
1642,1642,"200th St SW & Scriber Lake Rd",47.817635,-122.315380,0,99200
2761,2761,"Heron NB Station at 200th St SW",47.817880,-122.317710,0,99200
1012,1012,"Hwy 99 & 216th St SW",47.803710,-122.328572,0,
1508,1508,"Hwy 99 & 216th St SW",47.802523,-122.329866,0,
2753,2753,"Gateway NB Station at 216th St SW",47.803553,-122.328686,0,
2754,2754,"216th St SW SB Station",47.802879,-122.329612,0,
328,328,"238th St SW & Hwy 99",47.783164,-122.344203,0,99238r
1016,1016,"Hwy 99 & 238th St SW",47.784060,-122.342730,0,99238r
1517,1517,"Hwy 99 & 238th St SW",47.783697,-122.343432,0,99238r
1704,1704,"238th St SW & 84th Ave W",47.783328,-122.345149,0,99238r
2747,2747,"238th St SW NB Station",47.783555,-122.343090,0,99238r
2748,2748,"238th St SW SB Station",47.782854,-122.344036,0,99238r
3306,3306,"SODO Busway & S Royal Brougham Way",47.592150,-122.327408,0,9977
810,810,"Airport Rd & Hwy 99",47.890746,-122.259107,0,99air
1301,1301,"Airport Rd & Hwy 99",47.888344,-122.257793,0,99air
1513,1513,"Hwy 99 & Airport Rd",47.888320,-122.259719,0,99air
2781,2781,"Airport Road NB Station",47.889588,-122.258009,0,99air
2782,2782,"Airport Road SB Station",47.889213,-122.258838,0,99air
3021,3021,"Hwy 99 NB Station",47.890104,-122.258689,0,99air
3040,3040,"Hwy 99 SB Station",47.888695,-122.258072,0,99air
2354,2354,"99th Pl NE & 31st Ave NE",48.085467,-122.188612,0,
1908,1908,"Stewart St & 7th Ave",47.614556,-122.335971,0,
1909,1909,"Stewart St & 9th Ave",47.615832,-122.334230,0,
1037,1037,"S Stillaguamish Ave & Medical Center Dr",48.188731,-122.117593,0,
1535,1535,"S Stillaguamish Ave & Medical Center Dr",48.188794,-122.117768,0,
1303,1303,"Alderwood Mall Pkwy & 184th St SW",47.830733,-122.268679,0,
2431,2431,"Alderwood Mall Pkwy & 184th St SW",47.831614,-122.268401,0,
610,610,"33rd Ave W & 188th St SW",47.829611,-122.277595,0,
2678,2678,"33rd Ave W & 188th St SW",47.827258,-122.277837,0,
2737,2737,"33rd Ave W & 188th St SW",47.828793,-122.277830,0,
814,814,"Alderwood Mall Pkwy & Beech Rd",47.829303,-122.268359,0,
1305,1305,"Alderwood Mall Pkwy & Beech Rd",47.828347,-122.268728,0,
1490,1490,"Arlington Park & Ride Bay 1",48.196294,-122.129081,0,arlpr
2742,2742,"Aurora Village Station",47.774297,-122.341069,0,arvil
2875,2875,"Aurora Village Transit Center Bay 5",47.774427,-122.341362,0,arvil
2876,2876,"Aurora Village Transit Center Bay 7",47.774305,-122.342002,0,arvil
2877,2877,"Aurora Village Transit Center",47.774350,-122.342770,0,arvil
858,858,"Ave D & Third St",47.914837,-122.098333,0,
1352,1352,"Ave D & Third St",47.914969,-122.098521,0,
2131,2131,"Ash Way Park & Ride Bay 2",47.852882,-122.258253,0,awypr
2162,2162,"Ash Way Park & Ride Bay 3",47.853234,-122.257814,0,awypr
2163,2163,"Ash Way Park & Ride Bay 4",47.853448,-122.257584,0,awypr
2164,2164,"Ash Way Park & Ride Bay 1",47.852713,-122.258448,0,awypr
2981,2981,"Ash Way Park & Ride",47.852923,-122.258553,0,awypr
374,374,"Beardslee Blvd & Sunrise Dr",47.760598,-122.200276,0,
375,375,"Beardslee Blvd & 110th Ave NE",47.763750,-122.193642,0,
1744,1744,"Beardslee Blvd & 110th Ave NE",47.764007,-122.193608,0,
2606,2606,"Bickford Ave & Ridge Ave",47.935624,-122.104242,0,
2607,2607,"Bickford Ave & 19th Pl",47.935322,-122.104327,0,
355,355,"Bellevue Transit Center Bay 4",47.615535,-122.194839,0,blvtc
2860,2860,"Bellevue Transit Center Bay 8",47.615437,-122.194537,0,blvtc
1399,1399,"Bothell Park & Ride Bay 2",47.759468,-122.199971,0,botpr
2188,2188,"Brier Rd & 228th St SW",47.790884,-122.274370,0,
834,834,"Broadway St & E Gilman Ave",48.199800,-122.125075,0,
2418,2418,"Broadway St & E Gilman Ave",48.199142,-122.125306,0,
2150,2150,"Brickyard Fwy Station",47.743897,-122.186271,0,
2151,2151,"Brickyard Fwy Station",47.741250,-122.187676,0,
394,394,"W Casino Rd & Evergreen Way",47.921803,-122.230584,0,
1765,1765,"W Casino Rd & Evergreen Way",47.922069,-122.228850,0,
2795,2795,"Casino Rd NB Station",47.921193,-122.228516,0,
2796,2796,"Casino Rd SB Station",47.921290,-122.228882,0,
419,419,"Marysville at Cedar and Grove Park & Ride Bay 4",48.061149,-122.179776,0,cdgvpr
2883,2883,"Marysville at Cedar and Grove Park & Ride Bay 1",48.061339,-122.179301,0,cdgvpr
2884,2884,"Marysville at Cedar and Grove Park & Ride Bay 3",48.061654,-122.180212,0,cdgvpr
3001,3001,"Marysville at Cedar and Grove Park & Ride Bay 2",48.061331,-122.179780,0,cdgvpr
2132,2132,"Canyon Park Park & Ride Bay 3",47.793915,-122.211428,0,cpkpr
2134,2134,"Canyon Park Park & Ride Bay 2",47.794005,-122.211594,0,cpkpr
2135,2135,"Canyon Park Park & Ride Bay 1",47.794094,-122.211740,0,cpkpr
2736,2736,"Canyon Park Fwy Station Bay 4",47.793847,-122.214072,0,cpkpr
3035,3035,"Canyon Park Park & Ride Station",47.793893,-122.210858,0,cpkpr
2484,2484,"Airport Rd & W Casino Rd",47.920273,-122.271954,0,
3018,3018,"Kasch Park Rd NB Station",47.918657,-122.271460,0,
436,436,"Larch Way & Cypress Way",47.808074,-122.259206,0,
855,855,"Cypress Way & 209th Pl SW",47.808617,-122.260115,0,
1347,1347,"Cypress Way & 209th Pl SW",47.808827,-122.260307,0,
886,886,"Givens Ave & Fir St",48.248410,-121.603371,0,
1354,1354,"S Emens Ave & Darrington St",48.249505,-121.602275,0,
2864,2864,"Darrington St & Givens Ave",48.249829,-121.603885,0,
406,406,"Dayton St & 5th Ave S",47.809628,-122.377310,0,
1166,1166,"5th Ave S & Dayton St",47.809434,-122.377658,0,
1774,1774,"Dayton St & 5th Ave S",47.809772,-122.378030,0,
1775,1775,"Dayton St & 6th Ave S",47.809767,-122.375211,0,
3315,3315,"68th Ave W & 202nd St SW",47.815297,-122.324958,0,ecc
3316,3316,"68th Ave W & 202nd St SW",47.815638,-122.324749,0,ecc
1242,1242,"Edmonds Park & Ride Bay 1",47.805290,-122.330241,0,edmpr
1435,1435,"Railroad Ave & Beach Pl",47.811206,-122.384667,0,
1436,1436,"Edmonds Station Bay 4",47.812029,-122.383551,0,edmst
2915,2915,"Edmonds Station",47.811755,-122.383236,0,edmst
2916,2916,"Edmonds Station Bay 1",47.812267,-122.382569,0,edmst
2917,2917,"Edmonds Station Bay 2",47.812042,-122.382954,0,edmst
2918,2918,"Edmonds Station Bay 3",47.811836,-122.383217,0,edmst
2144,2144,"Eastmont Park & Ride Bay 1",47.915359,-122.205140,0,emtpr
2783,2783,"112th St SW NB Station",47.896847,-122.251255,0,
2784,2784,"112th St SW SB Station",47.896072,-122.252430,0,
2807,2807,"Madison St NB Station",47.936568,-122.218722,0,
497,497,"Evergreen Point Fwy Station",47.636795,-122.236279,0,
1859,1859,"Evergreen Point Fwy Station",47.637098,-122.236987,0,
2342,2342,"Everett Station Bay B2",47.974599,-122.197387,0,evtst
2343,2343,"Everett Station Bay B3",47.974367,-122.197284,0,evtst
2344,2344,"Everett Station Bay B4",47.974201,-122.197210,0,evtst
2345,2345,"Everett Station Bay C1",47.974851,-122.197619,0,evtst
2347,2347,"Everett Station Bay C3",47.974434,-122.197432,0,evtst
2838,2838,"Everett Station",47.973389,-122.196897,0,evtst
2861,2861,"Everett Station",47.974278,-122.197362,0,evtst
3405,3405,"Everett Station Bay A3",47.974695,-122.197180,0,evtst
3135,3135,"Hardeson Rd & Shuksan Way",47.934284,-122.250579,0,
3136,3136,"Hardeson Rd & Shuksan Way",47.934109,-122.250734,0,
570,570,"1st St & Hwy 2",47.857779,-121.701767,0,
1914,1914,"Hwy 2 & 1st St",47.857930,-121.703321,0,
890,890,"Granite Falls Park & Ride",48.080475,-121.969112,0,
1786,1786,"Grove St & Alder Ave",48.061344,-122.173873,0,
1033,1033,"State Ave & Grove St",48.061892,-122.176752,0,
1528,1528,"State Ave & Grove St",48.060849,-122.177053,0,
401,401,"Chennault Beach Rd & Harbour Pointe Blvd",47.897640,-122.303239,0,
1389,1389,"Harbour Pointe Blvd & Chennault Beach Rd",47.897751,-122.304763,0,
2906,2906,"Cedar St & Hewitt Ave",47.978677,-122.193949,0,
2986,2986,"Hewitt Ave & Fulton St",47.979241,-122.195589,0,
3006,3006,"Cedar St & Hewitt Ave",47.978490,-122.193731,0,
430,430,"Howell St & 9th Ave",47.614643,-122.333297,0,
426,426,"Hewitt Ave & Lombard Ave",47.979120,-122.203823,0,
2440,2440,"Hewitt Ave & Lombard Ave",47.979318,-122.202649,0,
427,427,"Hewitt Ave & Virginia Ave",47.979050,-122.196617,0,
2665,2665,"Lake Stevens Transit Center Bay 1",47.999479,-122.104383,0,lkspr
2666,2666,"Lake Stevens Transit Center Bay 2",47.999689,-122.103689,0,lkspr
2982,2982,"Lake Stevens Transit Center",47.999423,-122.104467,0,lkspr
206,206,"172nd St NE & 11th Ave NE",48.151726,-122.213367,0,
1591,1591,"172nd St NE & 11th Ave NE",48.151883,-122.215578,0,
2035,2035,"Lynnwood Transit Center",47.816082,-122.296421,0,lynntc
2108,2108,"Lynnwood Transit Center Bay B5",47.816120,-122.295584,0,lynntc
2109,2109,"Lynnwood Transit Center Bay C1",47.816065,-122.297267,0,lynntc
2110,2110,"Lynnwood Transit Center Bay C2",47.816059,-122.296915,0,lynntc
2111,2111,"Lynnwood Transit Center Bay C3",47.816053,-122.296559,0,lynntc
2113,2113,"Lynnwood Transit Center Bay D1",47.815891,-122.297018,0,lynntc
2114,2114,"Lynnwood Transit Center Bay D2",47.815884,-122.296606,0,lynntc
2115,2115,"Lynnwood Transit Center Bay A2",47.816311,-122.296907,0,lynntc
2119,2119,"Lynnwood Transit Center Bay B3",47.816131,-122.296293,0,lynntc
2120,2120,"Lynnwood Transit Center Bay B4",47.816125,-122.295937,0,lynntc
2167,2167,"Lynnwood Transit Center Bay B1",47.816142,-122.297010,0,lynntc
2168,2168,"Lynnwood Transit Center Bay B2",47.816135,-122.296598,0,lynntc
2177,2177,"Lynnwood Transit Center Bay C4",47.816049,-122.296254,0,lynntc
2422,2422,"Lynnwood Transit Center Bay D3",47.815880,-122.296301,0,lynntc
2543,2543,"Lynnwood Transit Center Bay D4",47.815875,-122.295946,0,lynntc
581,581,"Main St & 18th St NE",48.014397,-122.064043,0,
2579,2579,"Main St & 18th St NE",48.013572,-122.064231,0,
21,21,"Marine Dr NE & 31st Ave NE",48.052882,-122.187868,0,
3060,3060,"Marine Dr NE & 31st Ave NE",48.054509,-122.189616,0,
9,9,"Marine Dr NE & Meridian Ave N",48.038667,-122.233393,0,
17,17,"Marine Dr NE & Meridian Ave N",48.038491,-122.232773,0,
2103,2103,"Mariner Park & Ride Bay 1",47.880174,-122.238639,0,marpr
2104,2104,"Mariner Park & Ride Bay 2",47.879915,-122.238637,0,marpr
2105,2105,"Mariner Park & Ride Bay 3",47.879670,-122.238570,0,marpr
2106,2106,"Mariner Park & Ride Bay 4",47.879951,-122.238575,0,marpr
169,169,"128th St SE & Park Rd",47.881746,-122.222652,0,mcppr
3323,3323,"McCollum Park Park & Ride Temporary Bay",47.878726,-122.221963,0,mcppr
2648,2648,"Hwy 527 & 153rd St SE",47.859930,-122.218845,0,
2652,2652,"Hwy 527 & 153rd St SE",47.858571,-122.219055,0,
3028,3028,"153rd St SE NB Station",47.859559,-122.218828,0,
3047,3047,"153rd St SE SB Station",47.858941,-122.219074,0,
2671,2671,"Market Pl & 99th Ave NE",47.996414,-122.099644,0,
3175,3175,"99th Ave SE & 2nd St SE",47.994837,-122.098170,0,
1694,1694,"Mountlake Terrace Transit Center Bay 3",47.784974,-122.315576,0,mltpr
2765,2765,"Mountlake Terrace Fwy Station Bay 6",47.787225,-122.316405,0,mltpr
2766,2766,"Mountlake Terrace Fwy Station Bay 7",47.787566,-122.316282,0,mltpr
3266,3266,"236th St SW & Van Ry Blvd",47.784750,-122.314176,0,mltpr
3268,3268,"Mountlake Terrace Transit Center Drop-off",47.785340,-122.312570,0,mltpr
3269,3269,"Mountlake Terrace Transit Center Bay 1",47.785201,-122.312942,0,mltpr
188,188,"W Main St & 170th Dr SE",47.848839,-122.001947,0,
1583,1583,"W Main St & 170th Dr SE",47.848797,-122.004073,0,
28,28,"W Main St & 179th Ave SE",47.850708,-121.991096,0,
458,458,"W Main St & 179th Ave SE",47.850697,-121.988990,0,
587,587,"179th Ave SE & W Main St",47.851092,-121.990467,0,
2580,2580,"Village Way & Village Ct",47.849127,-121.982987,0,
2581,2581,"Village Way & Village Ct",47.849195,-121.983299,0,
2583,2583,"Village Way & Sky River Pkwy",47.849564,-121.981902,0,
1928,1928,"Monroe Park & Ride Bay 1",47.868348,-121.995807,0,monpr
553,553,"Hwy 2 & N Kelsey St",47.860576,-121.976834,0,
1920,1920,"Hwy 2 & N Kelsey St",47.861246,-121.978149,0,
3068,3068,"Kelsey St & North Rd",47.858841,-121.977327,0,
838,838,"Brook Blvd & 180th St SE",47.835321,-122.204879,0,
240,240,"Marysville I Park & Ride Bay 1",48.049927,-122.182828,0,mslpr
470,470,"Monte Villa Pkwy & 35th Ave SE",47.778354,-122.183864,0,
1836,1836,"Monte Villa Pkwy & 35th Ave SE",47.778782,-122.184923,0,
2214,2214,"35th Ave SE & Monte Villa Pkwy",47.779452,-122.185925,0,
3264,3264,"Mukilteo Ferry Terminal Bay 1",47.950330,-122.296377,0,
3265,3265,"Mukilteo Ferry Terminal Bay 2",47.950451,-122.295936,0,
415,415,"Grove St & 60th Dr NE",48.064395,-122.147623,0,
423,423,"Grove St & 59th Ave NE",48.063629,-122.151533,0,
1790,1790,"Grove St & 59th Ave NE",48.063973,-122.151340,0,
1794,1794,"Grove St & 60th Dr NE",48.064565,-122.149129,0,
2517,2517,"Marysville Ash Ave Park & Ride Bay 1",48.053909,-122.183818,0,mvlpr
2191,2191,"Northgate Station",47.702191,-122.328018,0,nortc
2192,2192,"Northgate Station Bay 2",47.701976,-122.328388,0,nortc
3253,3253,"1st Ave N & NE 103rd St",47.703774,-122.328506,0,nortc
476,476,"Olive Way & Terry Ave",47.614894,-122.332034,0,
2835,2835,"Colby Ave NB Station",47.976439,-122.208047,0,
2355,2355,"Wetmore Ave & Wall St",47.977325,-122.207239,0,pacwet
2356,2356,"Pacific Ave & Rockefeller Ave",47.976682,-122.205443,0,pacwet
2359,2359,"Pacific Ave & Rockefeller Ave",47.976509,-122.205033,0,pacwet
2466,2466,"Wetmore Ave & Wall St",47.977330,-122.207064,0,pacwet
2836,2836,"Wetmore Ave SB Station",47.976667,-122.206805,0,pacwet
442,442,"Lakewood Rd & W Lake Goodwin Rd",48.155745,-122.297174,0,
1814,1814,"Lakewood Rd & 52nd Ave NW",48.155866,-122.297546,0,
2819,2819,"40th St NB Station",47.964898,-122.210699,0,
2820,2820,"41st St SB Station",47.962858,-122.210975,0,
197,197,"Swamp Creek Park & Ride Bay 2",47.849881,-122.275536,0,scrpr
1573,1573,"Swamp Creek Park & Ride Bay 1",47.850137,-122.276383,0,scrpr
3017,3017,"Seaway Transit Center Station",47.929989,-122.260421,0,seaway
3138,3138,"Seaway Blvd & 75th St SW",47.930751,-122.259886,0,seaway
3148,3148,"75th St SW & Seaway Blvd",47.929748,-122.257775,0,seaway
3183,3183,"Seaway Transit Center Bay 3",47.930199,-122.259436,0,seaway
3184,3184,"Seaway Transit Center Bay 2",47.930426,-122.259724,0,seaway
3185,3185,"Seaway Transit Center Bay 1",47.930719,-122.260050,0,seaway
3186,3186,"Seaway Transit Center Bay 6",47.929963,-122.260077,0,seaway
3190,3190,"Seaway Transit Center Bay 11",47.930484,-122.260484,0,seaway
3199,3199,"Seaway Transit Center",47.930175,-122.259953,0,seaway
2867,2867,"South Everett Fwy Station Bay 2",47.899271,-122.214356,0,sefs
2868,2868,"South Everett Fwy Station Bay 3",47.899018,-122.214478,0,sefs
2869,2869,"South Everett Fwy Station Bay 6",47.899578,-122.213979,0,sefs
481,481,"Seattle Hill Rd & 35th Ave SE",47.860219,-122.186723,0,
1842,1842,"Seattle Hill Rd & 35th Ave SE",47.860281,-122.187193,0,
3058,3058,"35th Ave SE & Seattle Hill Rd",47.860088,-122.186237,0,
3059,3059,"35th Ave SE & Seattle Hill Rd",47.861035,-122.186017,0,
10,10,"Ellison James Dr & Steve Williams Dr",48.069227,-122.276456,0,
149,149,"Snohomish Cascade Dr & 142nd St SE",47.868735,-122.144312,0,
150,150,"Snohomish Cascade Dr & 141st St SE",47.870490,-122.144535,0,
151,151,"Snohomish Cascade Dr & 138th Pl SE",47.871221,-122.145078,0,
861,861,"Snohomish Park & Ride Bay 2",47.931846,-122.100233,0,snopr
1349,1349,"Snohomish Park & Ride Bay 1",47.931767,-122.100463,0,snopr
353,353,"56th St SE & 91st Ave SE",47.945616,-122.107916,0,
2987,2987,"Bickford Ave & 30th St",47.945057,-122.110458,0,
2989,2989,"Bickford Ave & 30th St",47.943746,-122.109225,0,
955,955,"Smokey Point Blvd & 168th St NE",48.148999,-122.182830,0,
2090,2090,"Smokey Point Blvd & 169th Pl NE",48.149083,-122.183182,0,
956,956,"Smokey Point Blvd & 172nd St NE",48.153229,-122.182816,0,
953,953,"Smokey Point Blvd & 177th Pl NE",48.157844,-122.182817,0,
1453,1453,"Smokey Point Blvd & 177th Pl NE",48.157159,-122.183045,0,
486,486,"Smokey Point Transit Center Bay 2",48.154717,-122.183831,0,sptc
1449,1449,"Smokey Point Transit Center Bay 3",48.154508,-122.183146,0,sptc
1594,1594,"172nd St NE & Smokey Point Blvd",48.152603,-122.183832,0,sptc
1847,1847,"Smokey Point Transit Center Bay 1",48.154633,-122.184630,0,sptc
2058,2058,"Smokey Point Transit Center Drop-off Only",48.154658,-122.184027,0,sptc
2460,2460,"Smokey Point Blvd & 174th Pl NE",48.154561,-122.182808,0,sptc
2473,2473,"State Ave & 116th St NE",48.100326,-122.175193,0,
2474,2474,"State Ave & 113th Pl NE",48.097618,-122.174520,0,
1031,1031,"State Ave & 88th St NE",48.076404,-122.175746,0,
1527,1527,"State Ave & 88th St NE",48.075233,-122.176201,0,
2463,2463,"88th St NE & State Ave",48.075699,-122.176889,0,
2949,2949,"88th St NE & State Ave",48.075501,-122.174472,0,
531,531,"Stanwood I-5 Park & Ride Bay 1",48.238685,-122.243032,0,stapr
929,929,"Stanwood I-5 Park & Ride Bay 2",48.238238,-122.243266,0,stapr
764,764,"76th Ave W & 216th St SW",47.803535,-122.335573,0,
1264,1264,"76th Ave W & 216th St SW",47.802985,-122.335788,0,
958,958,"Smokey Point Blvd & 183rd Pl NE",48.163282,-122.182821,0,
1451,1451,"Smokey Point Blvd & 183rd Pl NE",48.162999,-122.183174,0,
332,332,"Stanwood Downtown Park & Ride Bay 2",48.239150,-122.348758,0,stwpr
1711,1711,"Stanwood Downtown Park & Ride Bay 1",48.239264,-122.348883,0,stwpr
548,548,"Sultan Park & Ride Bay 2",47.862968,-121.803907,0,sulpr
1929,1929,"Sultan Park & Ride Bay 1",47.863091,-121.802715,0,sulpr
14,14,"Totem Beach Rd & 64th St NW",48.056176,-122.271535,0,
15,15,"64th St NW & Joseph Charles Jr Loop Rd",48.053686,-122.267222,0,
2201,2201,"64th St NW & Joseph Charles Jr Loop Rd",48.053803,-122.267757,0,
2202,2202,"Totem Beach Rd & 64th St NW",48.055978,-122.271194,0,
2503,2503,"30th Ave NE & 99th Pl NE",48.087376,-122.191444,0,
2229,2229,"UW Bothell & Cascadia College",47.761773,-122.192425,0,
2964,2964,"Marine Dr & Warm Beach Senior Community",48.181958,-122.350784,0,
2965,2965,"Marine Dr & Warm Beach Senior Community",48.181909,-122.351144,0,
1049,1049,"N West Ave & W 5th St",48.197527,-122.128094,0,
2846,2846,"N Olympic Ave & E 5th St",48.197432,-122.126406,0,
2849,2849,"N Olympic Ave & E 5th St",48.197517,-122.126222,0,
487,487,"Edmonds Way & 100th Ave W",47.790398,-122.365676,0,
576,576,"100th Ave W & 232nd St SW",47.788249,-122.366661,0,
1056,1056,"100th Ave W & Edmonds Way",47.789821,-122.366927,0,
1849,1849,"Edmonds Way & 100th Ave W",47.790809,-122.367424,0,
511,511,"Hwy 530 & Swede Heaven Rd",48.268654,-121.706009,0,
1875,1875,"Hwy 530 & Swede Heaven Rd",48.268782,-121.707421,0,
2621,2621,"137th St SE & Puget Park Dr",47.873382,-122.153769,0,
13216,,"132nd St SE & 16th Ave SE",47.878159,-122.211060,1,
137pp,,"Puget Park Dr & 136th St SE",47.873890,-122.154160,1,
164z7,,"Hwy 527 & 164th St SE",47.849453,-122.217003,1,
180z7,,"Hwy 527 & 180th St SE",47.834620,-122.210710,1,
19676,,"196th St SW & 76th Ave W",47.820240,-122.335880,1,
205a,,"N 205th St & Aurora Ave N",47.777829,-122.345768,1,
208z7,,"Hwy 527 & 208th SE",47.808450,-122.207640,1,
21284,,"212th St SW & 84th Ave W",47.806894,-122.346026,1,
22099,,"Hwy 99 & 220th St SW",47.799607,-122.331794,1,
22844,,"44th Ave W & 228th St SW",47.791854,-122.292332,1,
228z7,,"Hwy 527 & 228th St SE",47.791286,-122.216981,1,
99148,,"Hwy 99 & 148th St SW",47.864059,-122.281837,1,
99176r,,"Hwy 99 & 176th St SW",47.839137,-122.299588,1,
99196r,,"Hwy 99 & 196th St SW",47.821204,-122.315088,1,
99200,,"Heron Station 200th St SW",47.818080,-122.317790,1,
99238r,,"Hwy 99 & 238th St SW",47.783235,-122.343562,1,
9977,,"SODO Busway & S Royal Brougham Way",47.592010,-122.327430,1,
99air,,"Hwy 99 & Airport Rd",47.889850,-122.258040,1,
arlpr,,"Arlington Park & Ride",48.196152,-122.129158,1,
arvil,,"Aurora Village Transit Center",47.774171,-122.340638,1,
awypr,,"Ash Way Park & Ride",47.852744,-122.258759,1,
blvtc,,"Bellevue Transit Center",47.615541,-122.193674,1,
botpr,,"Bothell Park & Ride",47.758837,-122.199110,1,
cdgvpr,,"Marysville Cedar and Grove Park & Ride",48.061450,-122.179530,1,
cpkpr,,"Canyon Park Park & Ride",47.793737,-122.211773,1,
ecc,,"Edmonds College",47.815838,-122.324968,1,
edmpr,,"Edmonds Park & Ride",47.805681,-122.330284,1,
edmst,,"Edmonds Station",47.811890,-122.383620,1,
emtpr,,"Eastmont Park & Ride",47.915392,-122.205846,1,
evtst,,"Everett Station",47.975020,-122.197810,1,
lkspr,,"Lake Stevens Transit Center",47.999760,-122.104460,1,
lynntc,,"Lynnwood Transit Center",47.816060,-122.295410,1,
marpr,,"Mariner Park & Ride",47.880001,-122.238632,1,
mcppr,,"McCollum Park Park & Ride",47.879457,-122.220638,1,
mltpr,,"Mountlake Terrace Transit Center",47.784826,-122.314922,1,
monpr,,"Monroe Park & Ride",47.867551,-121.994789,1,
mslpr,,"Marysville I Park & Ride",48.050020,-122.182310,1,
mvlpr,,"Marysville Ash Ave Park & Ride",48.053710,-122.183670,1,
nortc,,"Northgate Station",47.702047,-122.328196,1,
pacwet,,"Wetmore Ave Station",47.977300,-122.207150,1,
scrpr,,"Swamp Creek Park & Ride",47.850002,-122.276087,1,
seaway,,"Seaway Transit Center",47.930222,-122.259948,1,
sefs,,"South Everett Fwy Station",47.898600,-122.214580,1,
snopr,,"Snohomish Park & Ride",47.931038,-122.100170,1,
sptc,,"Smokey Point Transit Center",48.154797,-122.183646,1,
stapr,,"Stanwood I-5 Park & Ride",48.237897,-122.242597,1,
stwpr,,"Stanwood Downtown Park & Ride",48.239200,-122.349400,1,
sulpr,,"Sultan Park & Ride",47.863703,-121.802124,1,
